,P_Creation Date,P_Status,P_SRN,P_Type of SR,P_Street Address,P_ Zip,P_X-Coordinate,P_Y-Coordinate,P_ Ward,P_Police_District,P_Community_Area,P_Latitude,P_Longitude,P_No_of_potholes_filled_on_block
0,2018-12-18T00:00:00.000,Open,18-03387502,Pothole in Street,2421 W 21ST PL,60608,1160589.58466936,1889668.10039763,28,10,31,41.852826019085306,-87.68653567831282,0
1,2018-12-18T00:00:00.000,Open,18-03387600,Pothole in Street,2747 N LARAMIE AVE,60639,1141239.63830315,1917871.33251029,31,25,19,41.93100789238241,-87.75625884592907,0
2,2018-12-18T00:00:00.000,Open,18-03387505,Pothole in Street,1145 S FAIRFIELD AVE,60612,1158185.76923213,1894949.25411183,28,11,29,41.86699199133602,-87.69460863867191,0
3,2018-12-18T00:00:00.000,Open,18-03388109,Pothole in Street,6300 S NARRAGANSETT AVE,60638,1134830.54602004,1862059.11078004,23,8,64,41.77762816475196,-87.78141062035807,0
4,2018-12-18T00:00:00.000,Open,18-03387506,Pothole in Street,1145 S WASHTENAW AVE,60612,1158537.44587029,1894956.8624811,28,11,29,41.867010107834254,-87.69329837456898,0
5,2018-12-18T00:00:00.000,Open,18-03389579,Pothole in Street,2600 N LAKEWOOD AVE,60614,1167191.34012594,1917393.4659754,32,19,7,41.92897503655794,-87.66119107601604,0
6,2018-12-18T00:00:00.000,Open,18-03388778,Pothole in Street,8247 S GREEN ST,60620,1172071.58412643,1850163.22816731,21,6,71,41.743767878411894,-87.64491044437408,0
7,2018-12-18T00:00:00.000,Open,18-03386479,Pothole in Street,1819 W HOWARD ST,60626,1162683.80480849,1950346.87997149,49,24,1,42.01929659502752,-87.67642786238677,0
8,2018-12-18T00:00:00.000,Open,18-03389580,Pothole in Street,1127 W SCHUBERT AVE,60614,1168321.50187901,1918084.14358472,43,19,7,41.93064744689892,-87.6573058309955,0
9,2018-12-18T00:00:00.000,Open,18-03388493,Pothole in Street,5230 S NEW ENGLAND AVE,60638,1131270.95041735,1869126.33708118,23,8,56,41.7967447072089,-87.79428866380958,0
10,2018-12-18T00:00:00.000,Open,18-03389578,Pothole in Street,2640 N SHEFFIELD AVE,60614,1169170.32437943,1917720.56430567,43,19,7,41.93011044391672,-87.6539198075495,0
11,2018-12-18T00:00:00.000,Open,18-03388180,Pothole in Street,4100 S WESTERN BLVD,60609,1161201.93739524,1877426.20002426,12,9,58,41.81924669608576,-87.68430532227995,0
12,2018-12-18T00:00:00.000,Open - Dup,18-03387472,Pothole in Street,600 S CENTRAL AVE,60644,1139150.09611752,1896761.21989853,29,15,25,41.872772222188686,-87.76473185047905,0
13,2018-12-18T00:00:00.000,Open,18-03387458,Pothole in Street,908 S CAMPBELL AVE,60612,1159861.46119611,1895933.91187577,28,11,28,41.86992746440123,-87.68871018865747,0
14,2018-12-18T00:00:00.000,Open,18-03388657,Pothole in Street,1899 S KOMENSKY AVE,60623,1149688.8000169,1890340.06988694,24,10,29,41.855111502863174,-87.72591769201104,0
15,2018-12-18T00:00:00.000,Open,18-03388112,Pothole in Street,5400 N WESTERN AVE,60625,1159364.4210923,1935786.95998239,40,20,4,41.979613525431304,-87.68944583164604,0
16,2018-12-18T00:00:00.000,Open,18-03387491,Pothole in Street,3530 W GOVERNORS PKWY,60624,1152676.87747382,1902496.78467038,27,11,23,41.88841687323832,-87.71482114026932,0
17,2018-12-18T00:00:00.000,Open,18-03388384,Pothole in Street,1959 S TROY ST,60623,1155669.85011488,1890142.12140968,24,10,29,41.85370382163392,-87.7039464929227,0
18,2018-12-18T00:00:00.000,Open,18-03388378,Pothole in Street,1358 S KEDZIE AVE,60623,1155250.26342208,1893263.98597806,24,10,29,41.86252937656554,-87.70570454286509,0
19,2018-12-18T00:00:00.000,Open - Dup,18-03388379,Pothole in Street,1959 S TROY ST,60623,1155669.85011488,1890142.12140968,24,10,29,41.85370382163392,-87.7039464929227,0
20,2018-12-17T00:00:00.000,Open,18-03384245,Pothole in Street,5709 N CENTRAL AVE,60646,1137869.61600844,1937631.06608789,39,16,11,41.9850426420961,-87.76815215478614,0
21,2018-12-17T00:00:00.000,Open,18-03381474,Pothole in Street,2410 W GRAND AVE,60612,1160158.11079528,1903398.46117353,26,12,24,41.890741273307825,-87.68725402902643,0
22,2018-12-17T00:00:00.000,Open,18-03378165,Pothole in Street,1121 N LATROBE AVE,60651,1141154.95651471,1906966.11871833,37,15,25,41.90106680798959,-87.75683367384009,0
23,2018-12-17T00:00:00.000,Open - Dup,18-03382608,Pothole in Street,1065 W MONROE ST,60607,1169317.51937259,1899733.99228872,25,12,28,41.88026076399077,-87.65444968083821,0
24,2018-12-17T00:00:00.000,Open,18-03380032,Pothole in Street,7940 S WOLCOTT AVE,60620,1165069.59537199,1852014.84090198,17,6,71,41.74903930606346,-87.67082665285308,0
25,2018-12-17T00:00:00.000,Open - Dup,18-03384654,Pothole in Street,2136 N AUSTIN AVE,60639,1136067.04472008,1913170.22332685,36,25,19,41.918985658086655,-87.775697880847,0
26,2018-12-17T00:00:00.000,Open,18-03385440,Pothole in Street,750 N OGDEN AVE,60642,1168868.34681368,1905263.17281397,27,12,24,41.89554260169958,-87.65542424816536,0
27,2018-12-17T00:00:00.000,Open,18-03382660,Pothole in Street,1517 W WEBSTER AVE,60614,1165561.67002725,1914721.13048926,2,18,7,41.921483884349286,-87.6670918851356,0
28,2018-12-17T00:00:00.000,Open,18-03382675,Pothole in Street,2640 W MONROE ST,60612,1158767.89741961,1899585.94372418,27,11,27,41.88030732516948,-87.69303585630158,0
29,2018-12-17T00:00:00.000,Open,18-03379525,Pothole in Street,5300 S FRANCISCO AVE,60632,1157941.59130076,1869368.27810421,14,9,63,41.797201394934504,-87.69648504707081,0
30,2018-12-17T00:00:00.000,Open,18-03381370,Pothole in Street,2300 N WESTERN AVE,60647,1159980.1389127,1915330.37997532,1,14,22,41.923335003623606,-87.6877427986446,0
31,2018-12-17T00:00:00.000,Open,18-03381396,Pothole in Street,3116 N SACRAMENTO AVE,60618,1155832.64361066,1920677.84419468,33,14,21,41.93810949639904,-87.70283848162448,0
32,2018-12-17T00:00:00.000,Open,18-03384843,Pothole in Street,4711 N VIRGINIA AVE,60625,1156969.44120777,1931187.49999078,40,19,4,41.96703545019651,-87.6981260789065,0
33,2018-12-17T00:00:00.000,Open - Dup,18-03384634,Pothole in Street,11648 S AVENUE J,60617,1202579.23596908,1828341.65979885,10,4,52,41.68312662713374,-87.53419140332903,0
34,2018-12-17T00:00:00.000,Open - Dup,18-03378281,Pothole in Street,5806 W BRYN MAWR AVE,60646,1136477.10052478,1936863.48373126,45,16,11,41.983028719895685,-87.77351105649434,0
35,2018-12-17T00:00:00.000,Open - Dup,18-03384499,Pothole in Street,328 N LAKE SHORE DR,60601,1180122.63110619,1902262.41959965,42,1,32,41.88709207291236,-87.61413825449038,0
36,2018-12-17T00:00:00.000,Open,18-03383604,Pothole in Street,1646 N NATOMA AVE,60707,1131831.74507466,1910229.35507342,29,25,25,41.910452736392216,-87.7913085628961,0
37,2018-12-17T00:00:00.000,Open,18-03379552,Pothole in Street,2802 W 54TH ST,60632,1158604.646832,1868724.35603331,14,9,63,41.79562231141972,-87.69400448637434,0
38,2018-12-17T00:00:00.000,Open,18-03381588,Pothole in Street,6231 W GUNNISON ST,60630,1133536.98998085,1931573.32769506,38,16,15,41.968345033215186,-87.78443621708955,0
39,2018-12-17T00:00:00.000,Open - Dup,18-03379447,Pothole in Street,4856 S KEATING AVE,60632,1145511.2504684,1872007.68292571,14,8,56,41.804135476965754,-87.74198749009386,0
40,2018-12-17T00:00:00.000,Open - Dup,18-03378915,Pothole in Street,2022 W NORTH AVE,60647,1162600.21848325,1910644.74219595,2,14,24,41.91058107623684,-87.67826840667618,0
41,2018-12-17T00:00:00.000,Open,18-03378386,Pothole in Street,2138 N DAYTON ST,60614,1170270.61581711,1914425.39773396,43,18,7,41.92113902648173,-87.64997515730734,0
42,2018-12-17T00:00:00.000,Open,18-03379926,Pothole in Street,7500 W HORTENSE AVE,60631,1125534.73477741,1941718.51813291,41,16,10,41.9965379038021,-87.813736474474,0
43,2018-12-17T00:00:00.000,Open,18-03383000,Pothole in Street,5042 W AINSLIE ST,60630,1141874.20677771,1932111.23581739,45,16,11,41.9698828327875,-87.7543828774266,0
44,2018-12-17T00:00:00.000,Open - Dup,18-03381642,Pothole in Street,4010 N PULASKI RD,60641,1149009.23677118,1926348.65989102,39,17,16,41.954020826585065,-87.72777414748239,0
45,2018-12-17T00:00:00.000,Open - Dup,18-03382990,Pothole in Street,611 S LOCKWOOD AVE,60644,1141104.73241824,1896766.2303002,29,15,25,41.872547642677816,-87.75725426576209,0
46,2018-12-17T00:00:00.000,Open - Dup,18-03384703,Pothole in Street,1819 E 103RD ST,60617,1189885.47300423,1837040.98529605,10,4,51,41.707768628932584,-87.57989906736378,0
47,2018-12-17T00:00:00.000,Open - Dup,18-03380161,Pothole in Street,6800 W BELDEN AVE,60707,1130711.1243981,1914323.32090821,36,25,18,41.92127775145258,-87.79526007003588,0
48,2018-12-17T00:00:00.000,Open,18-03383449,Pothole in Street,3411 S EMERALD AVE,60616,1171858.5224911,1882265.31648973,11,9,60,41.83222094054088,-87.64477592217438,0
49,2018-12-17T00:00:00.000,Open,18-03384577,Pothole in Street,6905 W SHAKESPEARE AVE,60707,1130011.38989836,1913602.79313107,29,25,25,41.91909363651703,-87.79775670427124,0
50,2018-12-17T00:00:00.000,Open,18-03383660,Pothole in Street,4700 W BARRY AVE,60641,1144499.44599419,1920197.04501826,31,25,19,41.93714716613836,-87.74441834629596,0
51,2018-12-17T00:00:00.000,Open,18-03382643,Pothole in Street,3623 N NORA AVE,60634,1128770.77960261,1923280.91542125,38,16,17,41.94607502129917,-87.8019563939807,0
52,2018-12-17T00:00:00.000,Open,18-03385577,Pothole in Street,333 N GREEN ST,60607,1170671.59523026,1902416.9381036,27,12,28,41.887808158349756,-87.64854522138359,0
53,2018-12-17T00:00:00.000,Open,18-03380220,Pothole in Street,10300 S GREEN ST,60643,1172466.46091697,1836541.04927145,34,22,73,41.7068134420736,-87.64418616762808,0
54,2018-12-17T00:00:00.000,Open - Dup,18-03382860,Pothole in Street,2018 N SAWYER AVE,60647,1154185.6730785,1913316.08009173,26,14,22,41.917973013707666,-87.70909012204712,0
55,2018-12-17T00:00:00.000,Open - Dup,18-03380759,Pothole in Street,1538 N LAVERGNE AVE,60651,1142759.68263349,1909763.95460798,37,25,25,41.908905085348735,-87.75116773989058,0
56,2018-12-17T00:00:00.000,Open - Dup,18-03382299,Pothole in Street,1063 W MONROE ST,60607,1169332.11937259,1899734.39228872,25,12,28,41.88026192379877,-87.65437689398802,0
57,2018-12-17T00:00:00.000,Open,18-03385116,Pothole in Street,4503 S KILDARE BLVD,60632,1148398.25010894,1874430.9871155,14,8,57,41.81128664727795,-87.73105647147105,0
58,2018-12-17T00:00:00.000,Open - Dup,18-03383550,Pothole in Street,10550 S AVENUE E,60617,1203821.48118116,1835952.92229254,10,4,52,41.703023006455915,-87.52938437117214,0
59,2018-12-17T00:00:00.000,Open,18-03379941,Pothole in Street,6200 N OLCOTT AVE,60631,1125515.4554321,1940661.89250271,41,16,10,41.99358085119744,-87.81381698262697,0
60,2018-12-17T00:00:00.000,Open,18-03379758,Pothole in Street,1402 W WARNER AVE,60613,1166208.79999918,1927666.13998033,47,19,6,41.95720274382897,-87.6645329321541,0
61,2018-12-17T00:00:00.000,Open,18-03382926,Pothole in Street,2550 N PULASKI RD,60639,1149297.78061043,1916324.97000707,31,25,22,41.9278135092499,-87.72701303431263,0
62,2018-12-17T00:00:00.000,Open,18-03382923,Pothole in Street,5046 N AVERS AVE,60625,1149804.01901532,1933256.08799748,39,17,14,41.9733138637925,-87.72467756176701,0
63,2018-12-17T00:00:00.000,Open,18-03379679,Pothole in Street,1934 W SCHOOL ST,60657,1162864.43878611,1921925.99639869,32,19,5,41.941520660599636,-87.67738366493512,0
64,2018-12-17T00:00:00.000,Open,18-03379918,Pothole in Street,7600 W PALATINE AVE,60631,1124686.49910696,1941230.00800492,41,16,10,41.995212252720805,-87.81682797292893,0
65,2018-12-17T00:00:00.000,Open,18-03381490,Pothole in Street,1105 N CHRISTIANA AVE,60651,1153787.83338314,1907168.57506816,26,11,23,41.90122253739984,-87.71042463658812,0
66,2018-12-17T00:00:00.000,Open,18-03382135,Pothole in Street,4756 W 85TH ST,60652,1146134.84970985,1847749.85468136,18,8,70,41.73829900990952,-87.74082751260164,0
67,2018-12-17T00:00:00.000,Open,18-03380795,Pothole in Street,1900 S HAMLIN AVE,60623,1151356.47092888,1890364.48000742,24,10,29,41.85493775984957,-87.72008458950238,0
68,2018-12-17T00:00:00.000,Open - Dup,18-03379716,Pothole in Street,1599 N LA SALLE DR,60610,1174833.52052965,1910995.31348677,2,18,8,41.91106533115013,-87.63300048150086,0
69,2018-12-17T00:00:00.000,Open,18-03378374,Pothole in Street,9400 S WOODLAWN AVE,60619,1185849.18592133,1842902.46292714,8,4,47,41.72401247428092,-87.59497952111779,0
70,2018-12-17T00:00:00.000,Open,18-03383522,Pothole in Street,7926 S COTTAGE GROVE AVE,60619,1182934.68363419,1852625.24381547,6,6,44,41.75045635343617,-87.6053632541433,0
71,2018-12-17T00:00:00.000,Open,18-03379762,Pothole in Street,2065 W JARVIS AVE,60645,1161148.69001115,1948778.63523113,49,24,1,42.01503302456836,-87.68306810914865,0
72,2018-12-17T00:00:00.000,Open,18-03381921,Pothole in Street,4400 W BELDEN AVE,60639,1146675.32900141,1914926.85461004,31,25,20,41.92264432557193,-87.7365574418826,0
73,2018-12-17T00:00:00.000,Open,18-03382504,Pothole in Street,7200 W WAVELAND AVE,60634,1127417.48761115,1923637.35986669,38,16,17,41.94689279880797,-87.80712131872366,0
74,2018-12-17T00:00:00.000,Open,18-03382581,Pothole in Street,1415 W ELMDALE AVE,60660,1165792.9041323,1939964.19139685,48,20,77,41.99074014010267,-87.66581300476278,0
75,2018-12-17T00:00:00.000,Open - Dup,18-03378504,Pothole in Street,398 E LOWER WACKER DR,60601,1179158.19671798,1902504.42402091,42,1,32,41.88788503584082,-87.61766861893602,0
76,2018-12-17T00:00:00.000,Open,18-03380110,Pothole in Street,4399 W FLOURNOY ST,60624,1147158.45161224,1896674.22997204,24,11,26,41.87233045967298,-87.73506179588367,0
77,2018-12-17T00:00:00.000,Open,18-03377087,Pothole in Street,756 W 45TH ST,60609,1171931.22027118,1875015.78561719,11,9,61,41.812605574173304,-87.64549895462976,0
78,2018-12-17T00:00:00.000,Open - Dup,18-03381143,Pothole in Street,4118 N RIDGEWAY AVE,60618,1150655.57329408,1927110.51711151,39,17,16,41.9561571036796,-87.72170494531612,0
79,2018-12-17T00:00:00.000,Open,18-03385110,Pothole in Street,4180 W 82ND ST,60652,1149961.97427802,1849732.88718016,18,8,70,41.74365709218734,-87.72643422579526,0
80,2018-12-17T00:00:00.000,Open - Dup,18-03383938,Pothole in Street,6126 N CENTRAL AVE,60646,1138672.75999472,1940661.77998146,39,16,12,41.993321415144095,-87.76541626342281,0
81,2018-12-17T00:00:00.000,Open - Dup,18-03383448,Pothole in Street,6459 S CENTRAL AVE,60638,1140199.81946995,1861100.86308788,13,8,64,41.774438983976864,-87.76143851514215,0
82,2018-12-17T00:00:00.000,Open - Dup,18-03385359,Pothole in Street,1000 W 108TH ST,60643,1171570.85810865,1833200.86227797,34,22,75,41.697866493817806,-87.64759465514607,0
83,2018-12-17T00:00:00.000,Open,18-03386050,Pothole in Street,1053 E 92ND ST,60619,1184927.05809962,1844194.53478883,8,4,47,41.72752282915539,-87.59764889828494,0
84,2018-12-17T00:00:00.000,Open,18-03378466,Pothole in Street,1405 W BELLE PLAINE AVE,60613,1166191.5288731,1927333.52757783,47,19,6,41.9560719242627,-87.66458335711005,0
85,2018-12-17T00:00:00.000,Open,18-03383637,Pothole in Street,2251 S SPRINGFIELD AVE,60623,1150736.86688949,1888751.87172451,22,10,30,41.85010451857165,-87.7220917483531,0
86,2018-12-17T00:00:00.000,Open,18-03382605,Pothole in Street,9036 S CLAREMONT AVE,60643,1162287.24363194,1844663.99651457,19,22,72,41.728964651476446,-87.68122368217455,0
87,2018-12-17T00:00:00.000,Open,18-03383529,Pothole in Street,5499 W GALE ST,60630,1138791.6002086,1932040.48628687,45,16,11,41.96959568063578,-87.76490591295338,0
88,2018-12-17T00:00:00.000,Open,18-03385464,Pothole in Street,5001 S LA CROSSE AVE,60638,1144869.98971519,1871031.38837191,22,8,56,41.80204240167932,-87.74408775005476,0
89,2018-12-17T00:00:00.000,Open - Dup,18-03382056,Pothole in Street,1001 W MONROE ST,60607,1169787.28988757,1899747.68138926,25,12,28,41.88029792411268,-87.65212018836681,0
90,2018-12-17T00:00:00.000,Open,18-03378942,Pothole in Street,1940 W NORTH AVE,60622,1163043.404925,1910661.152875,2,14,24,41.91061014015064,-87.67661047795522,0
91,2018-12-17T00:00:00.000,Open - Dup,18-03381051,Pothole in Street,4118 N RIDGEWAY AVE,60618,1150655.57329408,1927110.51711151,39,17,16,41.9561571036796,-87.72170494531612,0
92,2018-12-17T00:00:00.000,Open,18-03382198,Pothole in Street,1348 E 89TH ST,60619,1186757.03007687,1846238.33683425,8,4,48,41.73330381435226,-87.59106354295659,0
93,2018-12-17T00:00:00.000,Completed - Dup,18-03378790,Pothole in Street,415 S FINANCIAL PL,60605,1174948.39997362,1898426.27996782,4,1,32,41.876479996475894,-87.63295634334027,0
94,2018-12-17T00:00:00.000,Open,18-03381400,Pothole in Street,1644 N CAMPBELL AVE,60647,1159445.30297113,1910853.05051695,1,14,24,41.91162476020431,-87.68984235410377,0
95,2018-12-17T00:00:00.000,Open - Dup,18-03382924,Pothole in Street,5046 N AVERS AVE,60625,1149804.01901532,1933256.08799748,39,17,14,41.9733138637925,-87.72467756176701,0
96,2018-12-17T00:00:00.000,Open,18-03383018,Pothole in Street,10300 S COTTAGE GROVE AVE,60628,1182710.77469903,1836817.85018685,9,5,49,41.70740511783126,-87.6066722152349,0
97,2018-12-17T00:00:00.000,Open - Dup,18-03381946,Pothole in Street,6711 W GRAND AVE,60707,1131268.820007,1915218.65022619,36,25,18,41.92350783399178,-87.79292057686727,0
98,2018-12-17T00:00:00.000,Open,18-03384523,Pothole in Street,300 S HOMAN AVE,60624,1153764.16231857,1898484.48919117,28,11,27,41.877259891814624,-87.71103208695621,0
99,2018-12-17T00:00:00.000,Open,18-03378282,Pothole in Street,5606 W BRYN MAWR AVE,60646,1137798.72709535,1936879.05288981,45,16,11,41.98304770582163,-87.76867807380378,0
100,2018-12-17T00:00:00.000,Open,18-03378285,Pothole in Street,10556 S INDIANAPOLIS AVE,60617,1204904.60220407,1835673.07937259,10,4,52,41.70312195660828,-87.5251248470275,0
101,2018-12-17T00:00:00.000,Open,18-03382506,Pothole in Street,7300 W WAVELAND AVE,60634,1126760.51431053,1923602.85586689,38,16,17,41.94680751945703,-87.80954293156405,0
102,2018-12-17T00:00:00.000,Open - Dup,18-03384653,Pothole in Street,11203 S AVENUE J,60617,1202544.56399931,1831289.99379387,10,4,52,41.691690165121436,-87.53392872671725,0
103,2018-12-17T00:00:00.000,Open - Dup,18-03381377,Pothole in Street,6000 N CENTRAL AVE,60646,1138470.75402589,1939744.0090788,39,16,12,41.99088902192185,-87.76616908690622,0
104,2018-12-17T00:00:00.000,Open - Dup,18-03382183,Pothole in Street,1049 W MONROE ST,60607,1169434.88988757,1899737.38138926,25,12,28,41.880270041162525,-87.65386738598002,0
105,2018-12-17T00:00:00.000,Open,18-03386292,Pothole in Street,2356 E 71ST ST,60649,1193227.469982,1858258.3814703,5,3,43,41.76643484190554,-87.5667285266227,0
106,2018-12-17T00:00:00.000,Open - Dup,18-03385410,Pothole in Street,6400 N CENTRAL AVE,60646,1139065.68897259,1942131.004668,41,16,12,41.99738872050268,-87.76392151927979,0
107,2018-12-17T00:00:00.000,Open - Dup,18-03384077,Pothole in Street,811 W 98TH ST,60643,1172588.81652404,1839823.02991431,34,22,73,41.71579729345971,-87.64357992208025,0
108,2018-12-17T00:00:00.000,Open,18-03382611,Pothole in Street,3021 N NEWLAND AVE,60634,1129559.36468945,1919405.52007994,36,25,18,41.9351089372232,-87.79913507224762,0
109,2018-12-17T00:00:00.000,Open,18-03379483,Pothole in Street,9900 S GREEN ST,60643,1172391.93988806,1839200.82380657,34,22,73,41.714111405033535,-87.64437988550142,0
110,2018-12-17T00:00:00.000,Open - Dup,18-03385655,Pothole in Street,4119 W 82ND ST,60652,1150510.51930441,1849769.29057803,18,8,70,41.74347485642057,-87.72423771297979,0
111,2018-12-17T00:00:00.000,Open - Dup,18-03385674,Pothole in Street,4115 W 82ND PL,60652,1150328.9656272,1849476.59600037,18,8,70,41.74275057788119,-87.72475489936316,0
112,2018-12-17T00:00:00.000,Open - Dup,18-03379971,Pothole in Street,2541 N MARSHFIELD AVE,60614,1164905.5763285,1916942.08927879,32,19,7,41.92816497615842,-87.66932231266541,0
113,2018-12-17T00:00:00.000,Open,18-03385654,Pothole in Street,4155 W 82ND PL,60652,1150049.87000743,1849468.21099262,18,8,70,41.74272561139866,-87.7262279068276,0
114,2018-12-17T00:00:00.000,Open,18-03380286,Pothole in Street,3542 N PULASKI RD,60641,1149096.31226721,1923380.65009403,30,17,16,41.94583563191895,-87.72753030453865,0
115,2018-12-17T00:00:00.000,Open - Dup,18-03383861,Pothole in Street,4300 W SCHUBERT AVE,60639,1147257.3372273,1917603.74688422,31,25,20,41.929977591103324,-87.73441418623048,0
116,2018-12-17T00:00:00.000,Open,18-03378283,Pothole in Street,5603 W SEMINOLE ST,60646,1137835.15556751,1937545.06988387,45,16,11,41.98465596005587,-87.7684540439741,0
117,2018-12-17T00:00:00.000,Open,18-03386304,Pothole in Street,6836 S SOUTH SHORE DR,60649,1193409.40599874,1860100.93993088,5,3,43,41.77061952039603,-87.56671434472828,0
118,2018-12-17T00:00:00.000,Open - Dup,18-03382288,Pothole in Street,1037 W MONROE ST,60607,1169522.98988757,1899739.98138926,25,12,28,41.88027699711,-87.65343066474605,0
119,2018-12-17T00:00:00.000,Open,18-03384650,Pothole in Street,6447 S STONY ISLAND AVE,60637,1187987.30001998,1862549.51996782,5,3,42,41.77740716847427,-87.58620654970282,0
120,2018-12-17T00:00:00.000,Open,18-03380063,Pothole in Street,6030 N NAGLE AVE,60646,1132611.38529668,1939606.43299118,41,16,10,41.99104440231843,-87.78773227744551,0
121,2018-12-17T00:00:00.000,Open,18-03382525,Pothole in Street,6962 W NELSON ST,60634,1129324.46468945,1919490.82007994,36,25,18,41.93547671289403,-87.80053763462963,0
122,2018-12-17T00:00:00.000,Open,18-03378054,Pothole in Street,4142 N WESTERN AVE,60618,1159628.42662471,1927545.24998883,47,19,5,41.95711542660115,-87.68870484915179,0
123,2018-12-17T00:00:00.000,Open,18-03379830,Pothole in Street,2305 W 34TH ST,60608,1161524.13052066,1882086.55220144,12,9,59,41.83201089933672,-87.68289224737207,0
124,2018-12-17T00:00:00.000,Open - Dup,18-03385040,Pothole in Street,3200 W DIVISION ST,60651,1154811.84069413,1907804.70387224,26,14,23,41.902940471512245,-87.70691351268165,0
125,2018-12-17T00:00:00.000,Open - Dup,18-03382585,Pothole in Street,1067 W MONROE ST,60607,1169302.81937259,1899733.49228872,25,12,28,41.88025972510174,-87.65452292137972,0
126,2018-12-17T00:00:00.000,Open - Dup,18-03382546,Pothole in Street,2952 N SAYRE AVE,60634,1129073.46450026,1918927.75011361,29,25,18,41.93422554958617,-87.80123931568468,0
127,2018-12-17T00:00:00.000,Open,18-03379342,Pothole in Street,4830 S KEATING AVE,60632,1145506.57919804,1872182.16020474,14,8,56,41.8048706782867,-87.74200549806393,0
128,2018-12-17T00:00:00.000,Open,18-03379292,Pothole in Street,854 E 40TH ST,60653,1182837.77511855,1878432.60420368,4,2,36,41.82188761389607,-87.60432147305595,0
129,2018-12-17T00:00:00.000,Open,18-03381825,Pothole in Street,7558 W DEVON AVE,60631,1125036.81682883,1941926.20672501,41,16,9,41.99710778572572,-87.81587891536907,0
130,2018-12-17T00:00:00.000,Open - Dup,18-03383489,Pothole in Street,9500 S STONY ISLAND AVE,60617,1188504.43430277,1842299.31671488,8,5,51,41.72225727300588,-87.58527556507723,0
131,2018-12-17T00:00:00.000,Open - Dup,18-03378243,Pothole in Street,620 S KOSTNER AVE,60624,1147150.73592304,1896850.70848194,24,11,26,41.87289883192081,-87.73535703886408,0
132,2018-12-17T00:00:00.000,Open,18-03379518,Pothole in Street,10200 S HALSTED ST,60628,1172777.87178041,1837211.18950197,34,22,73,41.708643985185354,-87.64302434778298,0
133,2018-12-17T00:00:00.000,Open - Dup,18-03382317,Pothole in Street,4900 N OAK PARK AVE,60656,1130246.04529918,1932177.08548641,41,16,10,41.97026117103271,-87.79660953533383,0
134,2018-12-17T00:00:00.000,Open,18-03382491,Pothole in Street,3800 N OLCOTT AVE,60634,1125397.36032319,1924343.06227072,38,16,17,41.94882449625926,-87.8146176172865,0
135,2018-12-17T00:00:00.000,Completed,18-03378491,Pothole in Street,719 N DRAKE AVE,60624,1152585.37098817,1904606.18652342,27,11,23,41.89433511721722,-87.71491241815832,0
136,2018-12-17T00:00:00.000,Open - Dup,18-03382202,Pothole in Street,1043 W MONROE ST,60607,1169478.98988757,1899738.68138926,25,12,28,41.880273519341316,-87.65364902536925,0
137,2018-12-17T00:00:00.000,Open,18-03380164,Pothole in Street,10000 S LOWE AVE,60628,1173734.22041523,1838565.30998811,34,22,73,41.71233837166806,-87.63948165944346,0
138,2018-12-17T00:00:00.000,Open - Dup,18-03384454,Pothole in Street,2726 W FULLERTON AVE,60647,1157669.32999496,1915838.8004238,1,14,22,41.92493008639536,-87.69608878206519,0
139,2018-12-17T00:00:00.000,Open - Dup,18-03378259,Pothole in Street,10545 S GREEN BAY AVE,60617,1200522.11567957,1835444.43898905,10,4,52,41.70320943312109,-87.54119331660218,0
140,2018-12-17T00:00:00.000,Open,18-03382580,Pothole in Street,5508 S WHIPPLE ST,60629,1156983.41987588,1867954.63147321,14,8,63,41.793262715166,-87.70003353845321,0
141,2018-12-17T00:00:00.000,Open,18-03382231,Pothole in Street,1344 E 88TH ST,60619,1186717.17058041,1846902.79442069,8,4,48,41.73512813995258,-87.59118119252408,0
142,2018-12-17T00:00:00.000,Open,18-03378149,Pothole in Street,3428 W 71ST PL,60629,1154752.1261333,1856988.88992858,17,8,66,41.763490839819234,-87.70886370751252,0
143,2018-12-17T00:00:00.000,Open - Dup,18-03378708,Pothole in Street,4200 W CULLOM AVE,60641,1147631.49301898,1928247.45921602,39,17,16,41.95917821873021,-87.73271583693095,0
144,2018-12-17T00:00:00.000,Open,18-03383135,Pothole in Street,3925 W 68TH PL,60629,1151380.93958865,1858890.69367215,13,8,65,41.76855589052605,-87.72108699237371,0
145,2018-12-17T00:00:00.000,Open,18-03384615,Pothole in Street,3707 E 116TH ST,60617,1202649.03596908,1828663.15979885,10,4,52,41.68446143369229,-87.5337230146384,0
146,2018-12-17T00:00:00.000,Open,18-03383524,Pothole in Street,4834 N LONG AVE,60630,1139493.99281089,1931476.56901999,45,16,11,41.968742301512435,-87.7624442097803,0
147,2018-12-17T00:00:00.000,Open,18-03380123,Pothole in Street,10300 S WALLACE ST,60628,1174121.86607922,1836581.70509004,34,22,49,41.70693203286429,-87.63812235867432,0
148,2018-12-17T00:00:00.000,Open,18-03383626,Pothole in Street,10359 S FAIRFIELD AVE,60655,1159974.15138761,1835841.0185009,19,22,72,41.70460766628284,-87.68963711958753,0
149,2018-12-17T00:00:00.000,Open,18-03378454,Pothole in Street,4100 S WESTERN AVE,60609,1161049.85397488,1877405.8530677,12,9,58,41.819196100264044,-87.68486377651183,0
150,2018-12-17T00:00:00.000,Open,18-03382010,Pothole in Street,1001 S RACINE AVE,60607,1168528.71277242,1895727.02482459,25,12,28,41.86935997046203,-87.65660659387558,0
151,2018-12-17T00:00:00.000,Open - Dup,18-03380687,Pothole in Street,2732 N MILWAUKEE AVE,60647,1153794.84453054,1917991.91432765,35,14,22,41.9307219977604,-87.7103454809135,0
152,2018-12-17T00:00:00.000,Open - Dup,18-03382952,Pothole in Street,5046 N AVERS AVE,60625,1149804.01901532,1933256.08799748,39,17,14,41.9733138637925,-87.72467756176701,0
153,2018-12-17T00:00:00.000,Open,18-03382759,Pothole in Street,5300 N PIONEER AVE,60656,1120641.61580457,1934042.88859656,41,16,10,41.97547435696111,-87.83188863773381,0
154,2018-12-17T00:00:00.000,Open - Dup,18-03384651,Pothole in Street,3700 E 116TH ST,60617,1202574.53596908,1828662.75979885,10,4,52,41.68468168923334,-87.53399386018766,0
155,2018-12-17T00:00:00.000,Open,18-03382273,Pothole in Street,1354 W SCHUBERT AVE,60614,1166737.94839691,1918042.18477973,32,19,7,41.93077804482135,-87.66327897374005,0
156,2018-12-17T00:00:00.000,Open - Dup,18-03383277,Pothole in Street,1012 W MONROE ST,60607,1169706.48988757,1899745.28138926,25,12,28,41.880510169623626,-87.65257712538585,0
157,2018-12-17T00:00:00.000,Open,18-03385374,Pothole in Street,10800 S SANGAMON ST,60643,1171903.68002667,1833208.49000147,34,22,75,41.697678793022924,-87.64634214647918,0
158,2018-12-17T00:00:00.000,Open,18-03383170,Pothole in Street,6644 S STONY ISLAND AVE,60637,1188045.24412257,1861257.01433097,5,3,42,41.77382462851612,-87.58644875714224,0
159,2018-12-17T00:00:00.000,Open,18-03381945,Pothole in Street,2411 N NEWCASTLE AVE,60707,1130350.13989743,1915276.40242841,36,25,18,41.92396375825346,-87.79632883077312,0
160,2018-12-17T00:00:00.000,Open,18-03377810,Pothole in Street,945 W DIVERSEY PKWY,60614,1169394.49998166,1918783.89989337,43,19,7,41.93254031399874,-87.65320388258459,0
161,2018-12-17T00:00:00.000,Open,18-03378166,Pothole in Street,4400 W CONGRESS PKWY,60624,1147139.13706566,1897327.23090185,28,11,26,41.87433990121701,-87.73536535884803,0
162,2018-12-17T00:00:00.000,Completed,18-03378095,Pothole in Street,600 W LAKE ST,60661,1172288.98249819,1901697.439973,42,12,28,41.88581472403691,-87.64284713389955,7
163,2018-12-17T00:00:00.000,Open,18-03381920,Pothole in Street,2370 N NEWLAND AVE,60707,1129700.9822229,1914748.25856803,36,25,18,41.9232620326082,-87.79904448015613,0
164,2018-12-17T00:00:00.000,Open,18-03382321,Pothole in Street,8350 W BELMONT AVE,60634,1119794.79001778,1920234.77940691,38,16,76,41.937676833565924,-87.83565526966795,0
165,2018-12-16T00:00:00.000,Open,18-03373458,Pothole in Street,3551 W DEVON AVE,60659,1151354.16810422,1942197.82467761,50,17,13,41.99716793395305,-87.71860728000969,0
166,2018-12-16T00:00:00.000,Open,18-03372750,Pothole in Street,3858 N PULASKI RD,60641,1149033.08199979,1925574.95976574,45,17,16,41.95188409204342,-87.72770770928415,0
167,2018-12-16T00:00:00.000,Open,18-03372862,Pothole in Street,1205 W TAYLOR ST,60607,1168478.11277242,1895729.82482459,28,12,28,41.869301892911615,-87.65698266595034,0
168,2018-12-16T00:00:00.000,Open - Dup,18-03375126,Pothole in Street,2441 W LOGAN BLVD,60647,1159552.01378094,1917147.97132368,1,14,22,41.92826682230092,-87.68908638332968,0
169,2018-12-16T00:00:00.000,Open,18-03373241,Pothole in Street,1600 N KOLMAR AVE,60639,1145817.93982855,1910245.47219794,37,25,23,41.909791994943355,-87.73991372042484,0
170,2018-12-16T00:00:00.000,Open,18-03375915,Pothole in Street,9910 S HALSTED ST,60628,1172729.81839872,1839138.94299385,34,22,73,41.7138346039382,-87.64313501434866,0
171,2018-12-16T00:00:00.000,Open - Dup,18-03376094,Pothole in Street,5129 W GUNNISON ST,60630,1141308.43867481,1931829.08759463,45,16,11,41.96872817010421,-87.75615006585475,0
172,2018-12-16T00:00:00.000,Open - Dup,18-03372527,Pothole in Street,2716 N LONG AVE,60639,1139910.11989171,1917608.84969795,30,25,19,41.93006557602317,-87.7614351660394,0
173,2018-12-16T00:00:00.000,Open - Dup,18-03375125,Pothole in Street,2441 W LOGAN BLVD,60647,1159552.01378094,1917147.97132368,1,14,22,41.92826682230092,-87.68908638332968,0
174,2018-12-16T00:00:00.000,Open - Dup,18-03373199,Pothole in Street,300 E LOWER WACKER DR,60601,1178298.32809411,1902581.23368375,42,1,32,41.888082067345245,-87.62050117084912,0
175,2018-12-16T00:00:00.000,Open,18-03375575,Pothole in Street,7326 W ARDMORE AVE,60631,1126399.48562351,1937680.24622143,41,16,10,41.985443274548174,-87.81060588389208,0
176,2018-12-16T00:00:00.000,Open,18-03375948,Pothole in Street,2335 N TALMAN AVE,60647,1158306.07368167,1915534.49009671,1,14,22,41.924111843795316,-87.69359986805657,0
177,2018-12-16T00:00:00.000,Open - Dup,18-03373442,Pothole in Street,3801 W DEVON AVE,60659,1149875.60766891,1942179.91632205,39,17,13,41.99714765905198,-87.72408273549507,0
178,2018-12-16T00:00:00.000,Open - Dup,18-03372057,Pothole in Street,1600 N NB OUTER LAKE SHORE DR,60614,1176853.00709931,1911029.69059664,43,18,7,41.911304487870105,-87.62587860316864,0
179,2018-12-16T00:00:00.000,Open,18-03374481,Pothole in Street,9400 S ASHLAND AVE,60620,1167320.6961983,1842377.71987259,21,22,73,41.72294121820967,-87.66286287127305,0
180,2018-12-16T00:00:00.000,Open,18-03372730,Pothole in Street,4009 N PULASKI RD,60641,1149009.43677118,1926341.95989102,45,17,16,41.95396842193148,-87.72747859882783,0
181,2018-12-16T00:00:00.000,Open,18-03372827,Pothole in Street,7056 W SCHOOL ST,60634,1128456.91470141,1921123.36840388,29,16,17,41.939974093808104,-87.8034832463987,0
182,2018-12-16T00:00:00.000,Open,18-03373529,Pothole in Street,1349 W DEVON AVE,60660,1165923.31981873,1942621.72319717,48,24,77,41.99803264740354,-87.66494616230449,0
183,2018-12-16T00:00:00.000,Open - Dup,18-03373783,Pothole in Street,9500 S COTTAGE GROVE AVE,60628,1183576.32953423,1842151.06616908,9,5,49,41.72197046522736,-87.60334804007711,0
184,2018-12-16T00:00:00.000,Open - Dup,18-03371128,Pothole in Street,2 N AUSTIN BLVD,0,1136390.67476561,1899388.7918119,0,0,0,41.880184731363734,-87.77480630239796,0
185,2018-12-16T00:00:00.000,Open - Dup,18-03373218,Pothole in Street,6144 N CENTRAL AVE,60646,1138700.75999472,1940765.57998146,39,16,12,41.993871618715296,-87.76521560256005,0
186,2018-12-16T00:00:00.000,Open,18-03372839,Pothole in Street,12000 S PRINCETON AVE,60628,1176442.04179659,1825356.0729833,34,5,53,41.67603078174701,-87.62995973542573,0
187,2018-12-16T00:00:00.000,Open,18-03372661,Pothole in Street,3935 W IRVING PARK RD,60618,1149328.71342739,1926289.82441232,45,17,16,41.95355394833411,-87.72652629768923,0
188,2018-12-16T00:00:00.000,Open,18-03373528,Pothole in Street,1423 W DEVON AVE,60660,1165544.5498824,1942613.21438757,48,24,77,41.99801632173976,-87.66633423438455,0
189,2018-12-16T00:00:00.000,Open,18-03374069,Pothole in Street,4200 N GREENVIEW AVE,60613,1165313.05351416,1927978.00096957,47,19,6,41.9580145192417,-87.66778956345141,0
190,2018-12-16T00:00:00.000,Open - Dup,18-03373599,Pothole in Street,7050 W GRACE ST,60634,1128631.93999558,1924448.07939229,38,16,17,41.94908715694755,-87.80307588331155,0
191,2018-12-16T00:00:00.000,Open,18-03373453,Pothole in Street,5027 W DEVON AVE,60646,1141804.08987025,1942140.30030833,39,16,12,41.99719339081852,-87.75362227012384,0
192,2018-12-16T00:00:00.000,Open - Dup,18-03371519,Pothole in Street,5199 N CENTRAL PARK AVE,60625,1151454.98000741,1934312.35001181,39,17,13,41.975541358400704,-87.71828027637316,0
193,2018-12-16T00:00:00.000,Open - Dup,18-03373598,Pothole in Street,7104 W GRACE ST,60634,1128348.16398608,1924438.61611066,38,16,17,41.94907480827999,-87.80367269986031,0
194,2018-12-16T00:00:00.000,Open - Dup,18-03372208,Pothole in Street,8700 S ANTHONY AVE,60617,1192894.10278993,1847736.55487386,8,4,48,41.737063945133926,-87.56896220209047,0
195,2018-12-16T00:00:00.000,Open,18-03372886,Pothole in Street,812 S RACINE AVE,60607,1168506.54160041,1896435.17011044,28,12,28,41.87133128754764,-87.65696241077886,0
196,2018-12-16T00:00:00.000,Open,18-03374196,Pothole in Street,1400 W 81ST ST,60620,1168406.09353152,1851042.05311252,21,6,71,41.74689466168462,-87.65855751772956,0
197,2018-12-16T00:00:00.000,Open,18-03373245,Pothole in Street,1600 N KILPATRICK AVE,60639,1144773.60922506,1910218.71881611,37,25,25,41.90979116117716,-87.74364426760985,0
198,2018-12-16T00:00:00.000,Open - Dup,18-03374083,Pothole in Street,5900 S STATE ST,60621,1177284.26121793,1865899.99312228,20,2,40,41.78726874851543,-87.62565736701293,0
199,2018-12-16T00:00:00.000,Open,18-03372563,Pothole in Street,3836 W BERTEAU AVE,60618,1149941.38748807,1927636.62083204,39,17,16,41.95745634268154,-87.72433992542699,0
200,2018-12-16T00:00:00.000,Open - Dup,18-03371753,Pothole in Street,5100 S COTTAGE GROVE AVE,60615,1182448.95712683,1871368.88266898,4,2,40,41.802220633424966,-87.60655292996893,0
201,2018-12-16T00:00:00.000,Open - Dup,18-03374341,Pothole in Street,11500 S HARVARD AVE,60628,1176015.6949836,1828667.65181156,34,5,53,41.68512636979275,-87.63142108228581,0
202,2018-12-16T00:00:00.000,Open,18-03374912,Pothole in Street,5341 N MEADE AVE,60630,1134453.35297781,1935141.56316738,45,16,11,41.978693428707835,-87.78076815612066,0
203,2018-12-16T00:00:00.000,Open,18-03373031,Pothole in Street,6700 S HOYNE AVE,60636,1163517.43478747,1860209.25990923,16,7,67,41.772001236940966,-87.67629668689248,0
204,2018-12-16T00:00:00.000,Open,18-03373438,Pothole in Street,1800 S CLARK ST,60616,1175788.92251885,1891549.03829718,25,1,34,41.85769201149853,-87.63037123894216,0
205,2018-12-16T00:00:00.000,Open - Dup,18-03373596,Pothole in Street,1434 W ROSEMONT AVE,60660,1165601.3019289,1941994.27996871,48,24,77,41.99653651897282,-87.66675502628667,0
206,2018-12-16T00:00:00.000,Open,18-03376377,Pothole in Street,1941 N HUMBOLDT BLVD,60647,1156063.70679559,1912750.30978247,1,14,22,41.91684730632842,-87.70192436398962,0
207,2018-12-16T00:00:00.000,Open - Dup,18-03373511,Pothole in Street,3100 S WESTERN AVE,60608,1160917.21688199,1884178.14901723,25,9,31,41.83779489972262,-87.68514875102693,0
208,2018-12-16T00:00:00.000,Open - Dup,18-03372751,Pothole in Street,2247 W WABANSIA AVE,60647,1161087.78742433,1911422.47220652,32,14,24,41.91250999652171,-87.68429816007354,0
209,2018-12-16T00:00:00.000,Open,18-03374566,Pothole in Street,8400 W BELMONT AVE,60634,1119547.4598983,1920228.79147008,38,16,76,41.937659877212326,-87.83650658082797,0
210,2018-12-15T00:00:00.000,Open - Dup,18-03366871,Pothole in Street,3800 S KEDZIE AVE,60632,1155658.52537301,1879230.3615698,12,9,58,41.82435630760823,-87.7045936543129,0
211,2018-12-15T00:00:00.000,Open - Dup,18-03369505,Pothole in Street,4804 W DIVERSEY AVE,60639,1143877.11159556,1918186.09006891,31,25,19,41.931639692058404,-87.74687268445575,0
212,2018-12-15T00:00:00.000,Open,18-03367122,Pothole in Street,1940 S HOMAN AVE,60623,1154008.69998469,1890218.88000947,24,10,29,41.854122396958275,-87.71034132640797,0
213,2018-12-15T00:00:00.000,Open,18-03365562,Pothole in Street,4500 W NORTH AVE,60639,1146128.43982855,1910252.97219794,37,25,23,41.90982971151685,-87.73861095911464,0
214,2018-12-15T00:00:00.000,Open,18-03364965,Pothole in Street,600 S CENTRAL AVE,60644,1139150.09611752,1896761.21989853,29,15,25,41.872772222188686,-87.76473185047905,0
215,2018-12-15T00:00:00.000,Open - Dup,18-03369937,Pothole in Street,400 S CENTRAL AVE,60644,1139126.01899696,1897454.09002589,29,15,25,41.87468009194542,-87.76480397994328,0
216,2018-12-15T00:00:00.000,Open - Dup,18-03369502,Pothole in Street,300 E WACKER DR,60601,1178307.38047035,1902572.1000208,42,1,32,41.88807333160907,-87.6205944613368,0
217,2018-12-15T00:00:00.000,Open,18-03368826,Pothole in Street,6221 S CENTRAL PARK AVE,60629,1153387.27189462,1863031.24012791,23,8,66,41.779925652594194,-87.71263140911812,0
218,2018-12-15T00:00:00.000,Open - Dup,18-03369928,Pothole in Street,2406 N FRANCISCO AVE,60647,1156637.93001589,1915818.34803123,1,14,22,41.92506765707111,-87.70001918882875,0
219,2018-12-15T00:00:00.000,Open - Dup,18-03367311,Pothole in Street,3100 S WESTERN AVE,60608,1160917.21688199,1884178.14901723,25,9,31,41.83779489972262,-87.68514875102693,0
220,2018-12-15T00:00:00.000,Open,18-03368609,Pothole in Street,2905 S ARCHER AVE,60608,1168304.71889378,1885625.48909534,11,9,60,41.84159452199756,-87.65779370130038,0
221,2018-12-15T00:00:00.000,Open,18-03369752,Pothole in Street,4830 N KEELER AVE,60630,1147513.18751477,1931769.79671929,39,17,14,41.9690934770321,-87.73313830295962,0
222,2018-12-15T00:00:00.000,Open - Dup,18-03369915,Pothole in Street,2745 W FULLERTON AVE,60647,1157565.22999496,1915836.6004238,1,14,22,41.924703456345554,-87.69680035983875,0
223,2018-12-15T00:00:00.000,Open - Dup,18-03366797,Pothole in Street,5000 S COTTAGE GROVE AVE,60615,1182432.0224895,1872035.73636799,4,2,38,41.80403387486271,-87.60659434924774,0
224,2018-12-15T00:00:00.000,Open - Dup,18-03368463,Pothole in Street,1600 N NB OUTER LAKE SHORE DR,60614,1176853.00709931,1911029.69059664,43,18,7,41.911304487870105,-87.62587860316864,0
225,2018-12-15T00:00:00.000,Open,18-03364784,Pothole in Street,7104 W GRACE ST,60634,1128348.16398608,1924438.61611066,38,16,17,41.94907480827999,-87.80367269986031,0
226,2018-12-15T00:00:00.000,Completed - Dup,18-03368215,Pothole in Street,100 N MICHIGAN AVE,60602,1177299.6140023,1900836.66107586,42,1,32,41.88328915138877,-87.62454939639862,0
227,2018-12-15T00:00:00.000,Open - Dup,18-03365248,Pothole in Street,5315 W GIDDINGS ST,60630,1140112.86151403,1930936.64536577,45,16,15,41.96633527633701,-87.76016128819064,0
228,2018-12-15T00:00:00.000,Open,18-03369235,Pothole in Street,6700 S SOUTH CHICAGO AVE,60637,1180072.53810839,1860678.21039057,20,3,69,41.77280150149144,-87.615429082211,0
230,2018-12-15T00:00:00.000,Open,18-03367529,Pothole in Street,3154 N ALBANY AVE,60618,1155265.64081789,1920903.83712719,33,14,21,41.93918468111073,-87.70494985401515,0
231,2018-12-15T00:00:00.000,Completed,18-03365265,Pothole in Street,8200 S SPRINGFIELD AVE,60652,1151820.39858102,1849922.06443075,18,8,70,41.74400762888819,-87.71944367239192,17
232,2018-12-15T00:00:00.000,Open,18-03366732,Pothole in Street,14 W 65TH ST,60621,1177233.51410732,1861911.94012891,20,3,69,41.776530275146044,-87.6258160713982,0
233,2018-12-15T00:00:00.000,Open,18-03366444,Pothole in Street,12100 S STONY ISLAND AVE,60633,1191314.39889813,1825246.12838158,10,4,51,41.67538462666333,-87.57553071866162,0
234,2018-12-15T00:00:00.000,Open,18-03364664,Pothole in Street,5443 S UNION AVE,60609,1172563.43049261,1868603.8339044,20,9,61,41.79490031060324,-87.64259619329245,0
235,2018-12-15T00:00:00.000,Open,18-03366632,Pothole in Street,5159 N CENTRAL AVE,60630,1137841.16410299,1934047.20111292,45,16,11,41.97517487358322,-87.768344200415,0
236,2018-12-15T00:00:00.000,Open - Dup,18-03364716,Pothole in Street,2730 W FULLERTON AVE,60647,1157637.52999496,1915838.1004238,1,14,22,41.92492812377578,-87.69625430688542,0
237,2018-12-15T00:00:00.000,Open,18-03369236,Pothole in Street,7100 S SOUTH CHICAGO AVE,60619,1182784.75537804,1858113.19493051,5,3,69,41.76571672629447,-87.60558402698705,0
238,2018-12-15T00:00:00.000,Completed - Dup,18-03364263,Pothole in Street,799 W GRAND AVE,60654,1170954.17731639,1903683.95789707,27,12,24,41.8910758893113,-87.64752724013721,0
239,2018-12-15T00:00:00.000,Open,18-03368825,Pothole in Street,3651 W 61ST ST,60629,1153051.20801045,1863916.34448282,23,8,65,41.78230907907711,-87.71517236844971,0
240,2018-12-15T00:00:00.000,Open,18-03364007,Pothole in Street,360 N NB OUTER LAKE SHORE DR,60601,1180122.76770918,1902747.12998773,42,18,8,41.88843841160744,-87.61412199324374,0
241,2018-12-15T00:00:00.000,Open,18-03367440,Pothole in Street,4144 N SOUTHPORT AVE,60613,1166228.49999918,1927703.03998033,47,19,6,41.95748623656048,-87.6644207558246,0
242,2018-12-15T00:00:00.000,Open,18-03366879,Pothole in Street,1903 N HAMLIN AVE,60647,1150743.16643399,1912376.1607678,26,25,22,41.91555124127364,-87.7214700364322,0
243,2018-12-15T00:00:00.000,Open - Dup,18-03368370,Pothole in Street,4000 W LAWRENCE AVE,60630,1148861.93592875,1931598.86432521,39,17,14,41.96835128527914,-87.72809167198088,0
244,2018-12-15T00:00:00.000,Open - Dup,18-03368779,Pothole in Street,3518 W 62ND PL,60629,1154027.5711329,1862954.62567695,23,8,66,41.779877332746246,-87.71123496185413,0
245,2018-12-15T00:00:00.000,Open,18-03364713,Pothole in Street,10400 S MICHIGAN AVE,60628,1178901.03012278,1836040.61362681,9,5,49,41.70534195183082,-87.62064503337304,0
246,2018-12-15T00:00:00.000,Open - Dup,18-03368276,Pothole in Street,1600 N NB OUTER LAKE SHORE DR,60614,1176853.00709931,1911029.69059664,43,18,7,41.911304487870105,-87.62587860316864,0
248,2018-12-15T00:00:00.000,Open - Dup,18-03368358,Pothole in Street,4600 N HAMLIN AVE,60625,1150229.09983033,1930299.38420775,35,17,14,41.96469287717533,-87.72318300967568,0
249,2018-12-15T00:00:00.000,Open - Dup,18-03365628,Pothole in Street,4500 W NORTH AVE,60639,1146128.43982855,1910252.97219794,37,25,23,41.90982971151685,-87.73861095911464,0
250,2018-12-15T00:00:00.000,Open,18-03369450,Pothole in Street,6500 S STONY ISLAND AVE,60637,1188003.25646923,1862207.25992413,5,3,42,41.77693127269161,-87.58647360023576,0
251,2018-12-15T00:00:00.000,Open,18-03366557,Pothole in Street,7922 S SPRINGFIELD AVE,60652,1151767.66851896,1851663.2000844,18,8,70,41.74878519012281,-87.71958955264662,0
252,2018-12-15T00:00:00.000,Open - Dup,18-03364715,Pothole in Street,2666 W FULLERTON AVE,60647,1158301.07987183,1915851.8203788,1,14,22,41.92494196691,-87.69491046030078,0
253,2018-12-15T00:00:00.000,Open,18-03365426,Pothole in Street,7600 S GREENWOOD AVE,60619,1185056.4984129,1854843.66226784,8,6,69,41.75681492835959,-87.5975159018675,0
254,2018-12-15T00:00:00.000,Open,18-03364785,Pothole in Street,7050 W GRACE ST,60634,1128631.93999558,1924448.07939229,38,16,17,41.94908715694755,-87.80307588331155,0
255,2018-12-15T00:00:00.000,Open,18-03368050,Pothole in Street,3800 N OAK PARK AVE,60634,1130384.1104148,1924503.34001044,38,16,17,41.94912349832509,-87.79628180860355,0
256,2018-12-15T00:00:00.000,Open,18-03366146,Pothole in Street,7200 W BRYN MAWR AVE,60631,1127368.67866766,1936751.46001994,41,16,10,41.98287646838373,-87.80707684142614,0
257,2018-12-15T00:00:00.000,Open - Dup,18-03365788,Pothole in Street,2300 W ADAMS ST,60612,1161109.49292452,1899029.66841099,27,12,28,41.878731779316865,-87.68402713284112,0
258,2018-12-15T00:00:00.000,Open,18-03364450,Pothole in Street,1578 N CLYBOURN AVE,60642,1170589.55979346,1910669.44431177,2,18,8,41.910301282773744,-87.6488789122808,0
259,2018-12-15T00:00:00.000,Completed,18-03366015,Pothole in Street,230 N OGDEN AVE,60607,1166960.81857621,1901783.11118761,27,12,28,41.885849434411156,-87.662603973878,4
260,2018-12-15T00:00:00.000,Open,18-03368390,Pothole in Street,4705 W CORNELIA AVE,60641,1144541.40573112,1922990.80790155,30,17,15,41.94459388143892,-87.74416836222622,0
261,2018-12-15T00:00:00.000,Open,18-03367381,Pothole in Street,3944 N WESTERN AVE,60618,1159667.55046758,1926218.63998162,47,19,5,41.95351429360543,-87.6885994380359,0
262,2018-12-15T00:00:00.000,Open,18-03365672,Pothole in Street,1600 N NB OUTER LAKE SHORE DR,60614,1176853.00709931,1911029.69059664,43,18,7,41.911304487870105,-87.62587860316864,0
263,2018-12-15T00:00:00.000,Open - Dup,18-03366964,Pothole in Street,5334 W GIDDINGS ST,60630,1139928.36958769,1930916.82801532,45,16,15,41.966413597044436,-87.76087777738171,0
264,2018-12-15T00:00:00.000,Open - Dup,18-03369066,Pothole in Street,300 E WACKER DR,60601,1178307.38047035,1902572.1000208,42,1,32,41.88807333160907,-87.6205944613368,0
265,2018-12-15T00:00:00.000,Open - Dup,18-03365133,Pothole in Street,1800 S WESTERN AVE,60608,1160643.96316663,1891326.66991828,28,10,31,41.85747437096779,-87.68596860468548,0
266,2018-12-15T00:00:00.000,Open,18-03366149,Pothole in Street,7200 W BERWYN AVE,60656,1127121.01999865,1934405.7600032,41,16,10,41.976446951085094,-87.80796861074285,0
267,2018-12-15T00:00:00.000,Open - Dup,18-03364895,Pothole in Street,10133 S ARTESIAN AVE,60655,1161823.40792607,1837372.61547553,19,22,72,41.709029227458814,-87.68283555972683,0
268,2018-12-15T00:00:00.000,Open,18-03369283,Pothole in Street,7650 S KOSTNER AVE,60652,1148224.57221787,1853874.65460722,18,8,65,41.75351095269303,-87.73247660663556,0
269,2018-12-14T00:00:00.000,Open - Dup,18-03360251,Pothole in Street,10900 S LONGWOOD DR,60643,1164970.79007704,1832320.05998667,19,22,75,41.69542763293476,-87.67175305703175,0
270,2018-12-14T00:00:00.000,Open,18-03359795,Pothole in Street,634 E 113TH ST,60628,1182608.7031892,1830167.07429272,9,5,50,41.68929619158864,-87.60699060192792,12
271,2018-12-14T00:00:00.000,Open,18-03360200,Pothole in Street,7406 W EVERELL AVE,60631,1125925.94852952,1940306.8619172,41,16,10,41.99265422913503,-87.81237484194003,0
272,2018-12-14T00:00:00.000,Open,18-03360058,Pothole in Street,100 E 84TH ST,60619,1178614.71039703,1849337.29287038,6,6,44,41.74199310910466,-87.6210597002936,44
273,2018-12-14T00:00:00.000,Open - Dup,18-03362678,Pothole in Street,323 E LOWER WACKER DR,60601,1178500.12809411,1902563.23368375,42,1,32,41.887526695734984,-87.61963741497823,0
274,2018-12-14T00:00:00.000,Open,18-03357083,Pothole in Street,7159 W 57TH ST,60638,1129345.81008045,1865899.86589068,23,8,56,41.78825451591673,-87.80124981648798,0
275,2018-12-14T00:00:00.000,Open - Dup,18-03360263,Pothole in Street,6800 W BELDEN AVE,60707,1130711.1243981,1914323.32090821,36,25,18,41.92127775145258,-87.79526007003588,0
276,2018-12-14T00:00:00.000,Completed - Dup,18-03359493,Pothole in Street,2718 W MONTROSE AVE,60618,1157363.7300334,1929115.92147918,33,17,14,41.96136942297828,-87.69689245583815,0
277,2018-12-14T00:00:00.000,Open - Dup,18-03357932,Pothole in Street,4348 W GRAND AVE,60639,1146972.7476683,1910275.92502015,36,25,23,41.90987702827536,-87.7354853999699,0
278,2018-12-14T00:00:00.000,Open,18-03361576,Pothole in Street,4815 W ARGYLE ST,60630,1143349.06920275,1932810.96250432,45,16,12,41.97156165995293,-87.74854786539677,0
279,2018-12-14T00:00:00.000,Open - Dup,18-03360313,Pothole in Street,3506 W HOLLYWOOD AVE,60659,1151955.42927581,1937650.74487936,39,17,13,41.98489740429518,-87.71657371113349,0
280,2018-12-14T00:00:00.000,Open,18-03361336,Pothole in Street,6299 S INDIANA AVE,60637,1178697.3507273,1863268.17576991,20,3,40,41.78022230061535,-87.62028638868955,0
281,2018-12-14T00:00:00.000,Open,18-03359536,Pothole in Street,7800 S HONORE ST,60620,1165374.30800253,1852954.88643406,17,6,71,41.75200654211845,-87.66969200140511,0
282,2018-12-14T00:00:00.000,Open,18-03357572,Pothole in Street,10031 S PAXTON AVE,60617,1192824.50188817,1838894.35637466,7,4,51,41.71249446473107,-87.56926095125115,0
283,2018-12-14T00:00:00.000,Open,18-03360754,Pothole in Street,3255 N MARMORA AVE,60634,1136469.66618826,1921258.44399353,30,16,15,41.9401469572139,-87.77369714716059,0
284,2018-12-14T00:00:00.000,Open - Dup,18-03359700,Pothole in Street,824 W 87TH ST,60620,1172227.70761927,1847163.56650953,21,6,71,41.73616599592239,-87.64485711761948,0
285,2018-12-14T00:00:00.000,Open,18-03360183,Pothole in Street,3500 W GRENSHAW ST,60624,1153212.24250248,1894835.84831018,24,11,29,41.86738420111949,-87.71313391890325,0
286,2018-12-14T00:00:00.000,Open,18-03359131,Pothole in Street,5440 S RICHMOND ST,60632,1157634.97267069,1868425.2925934,14,9,63,41.79422477626473,-87.69762318454727,0
287,2018-12-14T00:00:00.000,Open,18-03360340,Pothole in Street,4100 N MONITOR AVE,60634,1136616.78970362,1926663.17226986,38,16,15,41.95501535261023,-87.77332148441151,0
288,2018-12-14T00:00:00.000,Open,18-03360343,Pothole in Street,4300 N AUSTIN AVE,60634,1135577.97109616,1927968.67221855,38,16,15,41.958616561804476,-87.77710906510092,0
289,2018-12-14T00:00:00.000,Open,18-03358709,Pothole in Street,5600 S DREXEL AVE,60637,1183191.76002074,1868070.96999494,5,2,41,41.79309143660869,-87.60393042229163,0
290,2018-12-14T00:00:00.000,Open,18-03359836,Pothole in Street,3100 E 126TH ST,60633,1198747.45769291,1822110.93377044,10,4,51,41.66680000108971,-87.54822079152619,0
291,2018-12-14T00:00:00.000,Open - Dup,18-03361162,Pothole in Street,2199 S HARDING AVE,60623,1150396.47169458,1889090.55057306,24,10,29,41.85166059016445,-87.7233522335862,0
292,2018-12-14T00:00:00.000,Open - Dup,18-03359733,Pothole in Street,7120 W SCHUBERT AVE,60707,1128396.800705,1917152.9116948,29,25,18,41.92908264167881,-87.80361258564035,0
293,2018-12-14T00:00:00.000,Open,18-03360036,Pothole in Street,100 E 82ND ST,60619,1178576.54732465,1850666.59921358,6,6,44,41.74564207709505,-87.62115995903984,18
294,2018-12-14T00:00:00.000,Open,18-03359289,Pothole in Street,3730 W FULLERTON AVE,60647,1150979.16507091,1915694.27208114,31,25,22,41.92466650126917,-87.72072428514568,0
295,2018-12-14T00:00:00.000,Open - Dup,18-03362488,Pothole in Street,2720 N MEADE AVE,60639,1135268.74757627,1917441.29901227,30,25,19,41.92993219971535,-87.77850309617365,0
296,2018-12-14T00:00:00.000,Completed,18-03360709,Pothole in Street,2844 W GRACE ST,60618,1156639.41707381,1925123.97961186,33,17,16,41.95042902348595,-87.6999704207997,10
297,2018-12-14T00:00:00.000,Open,18-03355732,Pothole in Street,505 N ASHLAND AVE,60622,1165636.6342308,1903627.93911803,1,12,24,41.89114005929022,-87.66699947330164,0
298,2018-12-14T00:00:00.000,Open,18-03361654,Pothole in Street,2350 W 112TH ST,60643,1163060.26998211,1830256.04001618,19,22,75,41.68993500324726,-87.68060928274424,0
299,2018-12-14T00:00:00.000,Open,18-03360307,Pothole in Street,4300 N MAJOR AVE,60634,1137572.01162211,1928018.09501439,38,16,15,41.958669586487076,-87.7697761600792,0
300,2018-12-14T00:00:00.000,Open,18-03360054,Pothole in Street,11100 S MARSHFIELD AVE,60643,1167924.40611315,1831121.4747124,34,22,75,41.69207319817085,-87.66100305798643,0
301,2018-12-14T00:00:00.000,Open,18-03360330,Pothole in Street,4100 N MARMORA AVE,60634,1136284.3375712,1926654.80421741,38,16,15,41.95499859259565,-87.77454361920374,0
302,2018-12-14T00:00:00.000,Open,18-03358358,Pothole in Street,10303 S LAWNDALE AVE,60655,1153484.14641526,1836052.19590292,19,22,74,41.70586867059771,-87.71341663561078,0
303,2018-12-14T00:00:00.000,Open,18-03359729,Pothole in Street,7150 W SCHUBERT AVE,60707,1128078.66947843,1917146.12248522,29,25,18,41.92906950775079,-87.80483627397982,0
304,2018-12-14T00:00:00.000,Open,18-03360025,Pothole in Street,150 E 81ST ST,60619,1178558.2027764,1851331.08450748,6,6,44,41.74749048438656,-87.61975353530336,14
305,2018-12-14T00:00:00.000,Open,18-03359817,Pothole in Street,1725 N LA SALLE DR,60614,1174809.18148846,1911930.39072949,43,18,7,41.91371701645605,-87.63306982825203,0
306,2018-12-14T00:00:00.000,Open - Dup,18-03360462,Pothole in Street,5056 N CENTRAL PARK AVE,60625,1151468.87681059,1933486.23839405,39,17,13,41.97371727159852,-87.71854895409085,0
307,2018-12-14T00:00:00.000,Open - Dup,18-03362525,Pothole in Street,2734 N MEADE AVE,60639,1135265.84757627,1917535.59901227,30,25,19,41.930329947625744,-87.77851580199457,0
308,2018-12-14T00:00:00.000,Completed - Dup,18-03358947,Pothole in Street,3550 W FOSTER AVE,60625,1151579.83990404,1934315.18290097,39,17,13,41.97575317361492,-87.71795857863768,0
309,2018-12-14T00:00:00.000,Open - Dup,18-03362517,Pothole in Street,7900 S HAMLIN AVE,60652,1152425.33206738,1851918.08449451,18,8,70,41.74947325542915,-87.71717306219841,0
310,2018-12-14T00:00:00.000,Completed,18-03361147,Pothole in Street,4700 N VIRGINIA AVE,60625,1157036.34120777,1931099.69999078,40,19,4,41.96668975571444,-87.69814737943724,3
311,2018-12-14T00:00:00.000,Open,18-03355983,Pothole in Street,4519 N MASON AVE,60630,1135864.28700366,1929447.40760826,38,16,15,41.962827884274056,-87.77573245248078,0
312,2018-12-14T00:00:00.000,Open,18-03361720,Pothole in Street,1002 E 87TH ST,60619,1184313.61803435,1847500.74949482,8,4,44,41.73682220284279,-87.60024350062355,0
313,2018-12-14T00:00:00.000,Open,18-03358710,Pothole in Street,9000 S COTTAGE GROVE AVE,60619,1183136.66499763,1845474.30481671,8,6,44,41.73113028503603,-87.60483500332792,0
314,2018-12-14T00:00:00.000,Completed - Dup,18-03356155,Pothole in Street,799 W GRAND AVE,60654,1170954.17731639,1903683.95789707,27,12,24,41.8910758893113,-87.64752724013721,0
315,2018-12-14T00:00:00.000,Open,18-03360046,Pothole in Street,200 E 82ND ST,60619,1179018.08779296,1850679.86410084,6,6,44,41.745668138759875,-87.61954110374394,17
316,2018-12-14T00:00:00.000,Open,18-03356770,Pothole in Street,400 W 28TH ST,60616,1174053.57540033,1886381.89806965,11,9,34,41.84374792470481,-87.63680117443113,0
317,2018-12-14T00:00:00.000,Open - Dup,18-03357237,Pothole in Street,1510 N DEARBORN PKWY,60610,1175652.43112478,1910445.09990457,2,18,8,41.909823461438016,-87.63031030724655,0
318,2018-12-14T00:00:00.000,Open - Dup,18-03359692,Pothole in Street,5600 W MONTROSE AVE,60634,1138216.0573064,1928698.95041638,38,16,15,41.96059349545158,-87.76730626505186,0
319,2018-12-14T00:00:00.000,Open,18-03360341,Pothole in Street,4200 N AUSTIN AVE,60634,1135598.34588307,1927303.46801956,38,16,15,41.95679065134189,-87.77705031717367,0
320,2018-12-14T00:00:00.000,Open - Dup,18-03359288,Pothole in Street,2666 W FULLERTON AVE,60647,1158301.07987183,1915851.8203788,1,14,22,41.92494196691,-87.69491046030078,0
321,2018-12-14T00:00:00.000,Open,18-03356018,Pothole in Street,4005 W BELMONT AVE,60641,1149132.29367639,1920978.26587567,31,25,21,41.938982814649364,-87.72745908462802,0
322,2018-12-14T00:00:00.000,Open,18-03360045,Pothole in Street,11100 S BISHOP ST,60643,1168533.94097783,1831137.35448258,34,22,75,41.69207086882711,-87.65873985739503,0
323,2018-12-14T00:00:00.000,Completed,18-03360800,Pothole in Street,7000 W BARRY AVE,60634,1129044.16998017,1919896.65986903,29,25,18,41.936599942823804,-87.80123702614033,0
324,2018-12-14T00:00:00.000,Open,18-03358741,Pothole in Street,8210 S BLACKSTONE AVE,60619,1187590.77253365,1850843.46670865,8,4,45,41.745614857771415,-87.5883446476021,0
325,2018-12-14T00:00:00.000,Completed - Dup,18-03361281,Pothole in Street,100 S DEARBORN ST,60603,1175954.03392397,1899910.31908193,42,1,32,41.88068672140957,-87.62951525745761,0
326,2018-12-14T00:00:00.000,Open,18-03360332,Pothole in Street,4300 N MARMORA AVE,60634,1136242.64679382,1927984.50252783,38,16,15,41.95864857764994,-87.77466468942549,0
327,2018-12-14T00:00:00.000,Open - Dup,18-03357698,Pothole in Street,301 E WACKER DR,60601,1178301.64638254,1902519.03068981,42,1,32,41.88771437729888,-87.6206747740109,0
328,2018-12-14T00:00:00.000,Open,18-03356061,Pothole in Street,4400 W 35TH PL,60632,1147583.32506934,1881460.4896719,22,10,30,41.83079106178359,-87.73408231468633,0
329,2018-12-14T00:00:00.000,Open,18-03357651,Pothole in Street,8126 W GREGORY ST,60656,1121016.3600043,1935787.14596828,41,16,10,41.98033842094528,-87.83039008867848,0
330,2018-12-14T00:00:00.000,Open,18-03360033,Pothole in Street,15 E 82ND ST,60619,1177861.50131696,1850644.62999077,6,6,44,41.7453795287027,-87.62373344607198,31
331,2018-12-14T00:00:00.000,Open,18-03358543,Pothole in Street,12604 S INDIANA AVE,60628,1179876.12000866,1821279.73998245,9,5,53,41.664750413270255,-87.61753679473406,0
332,2018-12-14T00:00:00.000,Open,18-03359839,Pothole in Street,1600 N LAKE SHORE DR,60614,1176689.23258486,1911038.66657716,43,18,7,41.911224555610815,-87.6264825724256,0
333,2018-12-14T00:00:00.000,Open,18-03362057,Pothole in Street,2517 N HALSTED ST,60614,1170511.07003315,1917091.01000108,43,19,7,41.927960793026365,-87.64870433110315,0
334,2018-12-14T00:00:00.000,Open - Dup,18-03357221,Pothole in Street,2018 W NORTH AVE,60647,1162625.71848325,1910645.44219595,2,14,24,41.910583643852554,-87.67810342196974,0
335,2018-12-14T00:00:00.000,Open,18-03361719,Pothole in Street,2619 W 86TH ST,60652,1160334.77003401,1847433.71996999,18,8,70,41.73693782564858,-87.68832517013396,0
336,2018-12-14T00:00:00.000,Open,18-03356482,Pothole in Street,5915 S DAN RYAN EXPRESS SR,60621,1175658.67392241,1865738.90861405,20,7,68,41.78674457993747,-87.63134708485649,0
337,2018-12-14T00:00:00.000,Open - Dup,18-03359619,Pothole in Street,9500 S STONY ISLAND AVE,60617,1188504.43430277,1842299.31671488,8,5,51,41.72225727300588,-87.58527556507723,0
338,2018-12-14T00:00:00.000,Completed,18-03360697,Pothole in Street,2800 W DIVERSEY AVE,60647,1157229.59461954,1918486.81659225,33,14,21,41.93220539506452,-87.6976792438691,26
339,2018-12-14T00:00:00.000,Open - Dup,18-03358492,Pothole in Street,341 N COLUMBUS DR,60601,1178307.38047035,1902572.1000208,42,1,32,41.8878846470662,-87.6205117403242,0
340,2018-12-14T00:00:00.000,Open,18-03360063,Pothole in Street,359 E 111TH ST,60628,1180619.54576997,1831437.87198893,9,5,49,41.69262697086107,-87.61349415155583,0
341,2018-12-14T00:00:00.000,Open,18-03359527,Pothole in Street,7700 S WINCHESTER AVE,60620,1164693.74640374,1853602.19081948,17,6,71,41.75379752005542,-87.6721682886467,0
342,2018-12-14T00:00:00.000,Open,18-03357946,Pothole in Street,6308 N HARLEM AVE,60631,1127374.56729307,1941462.45201457,41,16,9,41.995688080012066,-87.80696129020262,0
343,2018-12-14T00:00:00.000,Completed - Dup,18-03359290,Pothole in Street,4300 S WENTWORTH AVE,60609,1175648.38580534,1876475.1979188,3,9,37,41.81639453372854,-87.6313400897933,0
344,2018-12-14T00:00:00.000,Open - Dup,18-03360336,Pothole in Street,4300 N MONITOR AVE,60634,1136574.58688891,1927992.53847589,38,16,15,41.958664104869165,-87.77344478340777,0
345,2018-12-14T00:00:00.000,Open,18-03360093,Pothole in Street,2819 E 95TH ST,60617,1196494.2900175,1842505.01578287,10,4,51,41.72260027156503,-87.55573441077465,0
346,2018-12-14T00:00:00.000,Open - Dup,18-03361655,Pothole in Street,6500 W 64TH ST,60638,1134187.23143385,1861377.64028573,23,8,64,41.775924572734226,-87.7837653394065,0
347,2018-12-14T00:00:00.000,Open,18-03359682,Pothole in Street,800 W MONTROSE AVE,60613,1170124.00038189,1929426.62978197,46,19,3,41.961952099022184,-87.6499773331093,0
348,2018-12-14T00:00:00.000,Open - Dup,18-03361832,Pothole in Street,4412 W GEORGE ST,60641,1146410.54730641,1918915.93891235,31,25,20,41.933591652083386,-87.73739538093778,0
349,2018-12-14T00:00:00.000,Open,18-03360310,Pothole in Street,4200 N MARMORA AVE,60634,1136263.46920868,1927319.26009654,38,16,15,41.95682146634144,-87.77460540621017,0
350,2018-12-14T00:00:00.000,Open,18-03361038,Pothole in Street,10144 S STATE ST,60628,1178046.68452566,1837616.48007802,9,5,49,41.70946952750681,-87.62371458429658,0
351,2018-12-14T00:00:00.000,Open,18-03357191,Pothole in Street,2400 W IRVING PARK RD,60618,1159659.64501828,1926492.05129768,47,19,5,41.954120696614304,-87.68858958151804,0
352,2018-12-14T00:00:00.000,Open,18-03358886,Pothole in Street,6300 S BELL AVE,60636,1162487.07998543,1862820.69999476,16,8,66,41.77914283555344,-87.67999894142017,0
353,2018-12-14T00:00:00.000,Open,18-03357169,Pothole in Street,10715 S ALBANY AVE,60655,1157557.19860786,1833413.00912471,19,22,74,41.698425553061284,-87.69856863212677,0
354,2018-12-14T00:00:00.000,Open - Dup,18-03358092,Pothole in Street,6436 S TALMAN AVE,60629,1159816.19581291,1861849.56021163,17,8,66,41.77614498816483,-87.68980419843382,0
355,2018-12-14T00:00:00.000,Open,18-03357234,Pothole in Street,916 N DAMEN AVE,60622,1162901.99660293,1906184.199923,2,12,24,41.89828116936385,-87.67726727896064,0
356,2018-12-14T00:00:00.000,Open - Dup,18-03358590,Pothole in Street,4101 W LAWRENCE AVE,60630,1148184.28292467,1931584.01352369,39,17,14,41.968104654363614,-87.73053778099141,0
357,2018-12-14T00:00:00.000,Open,18-03361266,Pothole in Street,1725 W JACKSON BLVD,60612,1164855.68808726,1898674.14551714,27,12,28,41.877457721728234,-87.6702656620153,0
358,2018-12-14T00:00:00.000,Open,18-03361189,Pothole in Street,3200 W BRYN MAWR AVE,60659,1154030.63927197,1937038.65998421,39,17,13,41.98317645731145,-87.70893943216761,0
359,2018-12-14T00:00:00.000,Completed - Dup,18-03361303,Pothole in Street,41 W ADAMS ST,60603,1175962.47148343,1899443.50409864,42,1,32,41.87932707149282,-87.6294215049074,0
360,2018-12-14T00:00:00.000,Open,18-03360060,Pothole in Street,7000 S GREEN ST,60621,1171843.10848436,1858435.83107392,6,7,68,41.76690777798583,-87.6458264157106,0
361,2018-12-14T00:00:00.000,Open - Dup,18-03360305,Pothole in Street,1600 N AUSTIN AVE,60639,1136064.68327255,1910015.45267395,29,25,25,41.90939056630653,-87.7756631010805,0
362,2018-12-14T00:00:00.000,Open,18-03360309,Pothole in Street,4100 N PARKSIDE AVE,60634,1137946.13593242,1926696.02001869,38,16,15,41.955082008812056,-87.7684331858972,0
363,2018-12-14T00:00:00.000,Open,18-03357784,Pothole in Street,11100 S MICHIGAN AVE,60628,1178787.87827853,1831381.67750363,9,5,49,41.69255976259198,-87.62119369539766,0
364,2018-12-14T00:00:00.000,Open,18-03360065,Pothole in Street,10926 S LONGWOOD DR,60643,1164973.89007704,1832218.15998667,19,22,75,41.694908565225695,-87.6717374103577,0
365,2018-12-14T00:00:00.000,Open - Dup,18-03361665,Pothole in Street,6700 W 64TH ST,60638,1132856.53081708,1861341.76467621,23,8,64,41.775850523371275,-87.78864287782638,0
366,2018-12-14T00:00:00.000,Open,18-03360737,Pothole in Street,5115 S CAMPBELL AVE,60632,1160567.95081994,1870678.823325,14,9,63,41.8006285835849,-87.68652023062195,0
367,2018-12-14T00:00:00.000,Open,18-03362015,Pothole in Street,5700 N OCTAVIA AVE,60631,1126634.84858547,1937237.65141036,41,16,10,41.98417461451307,-87.80980477429797,0
368,2018-12-14T00:00:00.000,Open,18-03361500,Pothole in Street,3443 N PAGE AVE,60634,1121810.47521992,1921844.62540825,38,16,17,41.942427327094805,-87.82758012797771,0
369,2018-12-14T00:00:00.000,Open,18-03359282,Pothole in Street,4231 N MONTICELLO AVE,60618,1151298.91431224,1927880.75227313,35,17,16,41.95836049491823,-87.71903089482367,0
370,2018-12-13T00:00:00.000,Open - Dup,18-03350326,Pothole in Street,718 W 110TH ST,60628,1173411.27172886,1831917.85946838,34,22,49,41.69430490071275,-87.6408939886346,0
371,2018-12-13T00:00:00.000,Completed,18-03352690,Pothole in Street,4928 N FRANCISCO AVE,60625,1156144.38736716,1932698.16990476,40,20,4,41.97153743859982,-87.70137821322922,2
372,2018-12-13T00:00:00.000,Open,18-03350420,Pothole in Street,6110 N DAMEN AVE,60659,1161891.94660552,1940418.13633065,40,24,2,41.99221486235111,-87.68001855138365,0
373,2018-12-13T00:00:00.000,Open,18-03352726,Pothole in Street,3000 N KEARSARGE AVE,60641,1147696.88982247,1919608.05991357,31,25,21,41.93534727554043,-87.7327711006816,0
374,2018-12-13T00:00:00.000,Open,18-03346640,Pothole in Street,2325 N JANSSEN AVE,60614,1166257.2915216,1915553.01421638,2,18,7,41.92416503331658,-87.66438826247987,0
375,2018-12-13T00:00:00.000,Open - Dup,18-03351146,Pothole in Street,5200 N BERNARD ST,60625,1152446.17149734,1934334.27461922,39,17,13,41.97577142853804,-87.71492119675857,0
376,2018-12-13T00:00:00.000,Open - Dup,18-03350689,Pothole in Street,20 W 104TH ST,60628,1177962.3816288,1836013.53839018,34,5,49,41.70544046279939,-87.6242544956632,0
377,2018-12-13T00:00:00.000,Open,18-03352271,Pothole in Street,4101 W LAWRENCE AVE,60630,1148184.28292467,1931584.01352369,39,17,14,41.968104654363614,-87.73053778099141,0
378,2018-12-13T00:00:00.000,Open,18-03346506,Pothole in Street,500 W 115TH ST,60628,1175027.97037143,1828642.48958245,34,22,49,41.68528246753415,-87.63495801425802,0
379,2018-12-13T00:00:00.000,Open - Dup,18-03350787,Pothole in Street,5849 N CENTRAL AVE,60646,1137902.36960978,1938463.12019001,39,16,11,41.98728897067043,-87.76804841367992,0
380,2018-12-13T00:00:00.000,Completed,18-03346591,Pothole in Street,8518 S SPRINGFIELD AVE,60652,1151904.26190917,1847669.03310521,18,8,70,41.73785306796871,-87.71924906462462,9
381,2018-12-13T00:00:00.000,Completed,18-03352804,Pothole in Street,2153 W AINSLIE ST,60625,1161022.14022464,1932516.21920621,47,20,4,41.970396860871645,-87.68379399497817,3
382,2018-12-13T00:00:00.000,Open,18-03350438,Pothole in Street,1336 N ROCKWELL ST,60622,1158823.66419549,1908908.30013245,26,14,24,41.90582366283705,-87.69217184241928,0
383,2018-12-13T00:00:00.000,Open,18-03351152,Pothole in Street,1415 W 122ND ST,60643,1169049.90137492,1823810.48349483,34,5,53,41.6720194207608,-87.6569346067756,0
384,2018-12-13T00:00:00.000,Open - Dup,18-03350629,Pothole in Street,8300 S ASHLAND AVE,60620,1167118.06436795,1849680.24008019,21,6,71,41.742984089771156,-87.66339655526848,0
385,2018-12-13T00:00:00.000,Completed - Dup,18-03352822,Pothole in Street,2135 W AINSLIE ST,60625,1161108.54022464,1932518.51920621,47,20,4,41.97040829002569,-87.68305652080167,0
387,2018-12-13T00:00:00.000,Open - Dup,18-03350344,Pothole in Street,724 W 110TH ST,60628,1173347.17172886,1831916.25946838,34,22,49,41.69430163459157,-87.64116641678484,0
388,2018-12-13T00:00:00.000,Open,18-03352535,Pothole in Street,7800 S WOOD ST,60620,1165704.80112547,1852963.01792843,17,6,71,41.75202238059488,-87.66848150603361,0
389,2018-12-13T00:00:00.000,Open,18-03350439,Pothole in Street,5732 W LAWRENCE AVE,60630,1137209.69000323,1931335.76981862,45,16,15,41.967845713857436,-87.77105842760949,0
390,2018-12-13T00:00:00.000,Open - Dup,18-03346686,Pothole in Street,4005 W LAWRENCE AVE,60630,1148804.13592875,1931597.56432521,39,17,14,41.968129655063976,-87.72825749023349,0
391,2018-12-13T00:00:00.000,Completed,18-03352832,Pothole in Street,4858 N HAMILTON AVE,60625,1161129.84022464,1932282.91920621,47,20,4,41.970450636131446,-87.6830637029868,4
392,2018-12-13T00:00:00.000,Completed - Dup,18-03349517,Pothole in Street,330 N DESPLAINES ST,60661,1171869.96609227,1902320.77366833,42,12,28,41.887777129041744,-87.64445006048251,0
393,2018-12-13T00:00:00.000,Open - Dup,18-03350488,Pothole in Street,50 W 104TH ST,60628,1178088.0816288,1836016.63839018,34,5,49,41.70542667285798,-87.6253599644162,0
394,2018-12-13T00:00:00.000,Open,18-03351591,Pothole in Street,414 W BLACKHAWK ST,60610,1173225.01553281,1910279.98987375,2,18,8,41.909343908049244,-87.63923316733165,0
395,2018-12-13T00:00:00.000,Open,18-03349133,Pothole in Street,5471 N OCONTO AVE,60656,1126793.01946637,1935813.89922064,41,16,10,41.980394153925744,-87.80878748583278,0
396,2018-12-13T00:00:00.000,Completed,18-03352699,Pothole in Street,2647 W EASTWOOD AVE,60625,1157783.7118257,1930732.90703188,47,19,4,41.96557627290253,-87.69558682665935,1
397,2018-12-13T00:00:00.000,Completed,18-03353075,Pothole in Street,7300 W BARRY AVE,60707,1126877.13482359,1919811.54511649,29,25,17,41.936402621544104,-87.80919628902681,88
398,2018-12-13T00:00:00.000,Completed - Dup,18-03354347,Pothole in Street,3045 W 41ST ST,60632,1156724.68447402,1877290.95006826,15,9,58,41.81893656453618,-87.70127179018633,0
399,2018-12-13T00:00:00.000,Open,18-03355126,Pothole in Street,1800 W 16TH ST,60608,1164637.37786603,1892102.69110438,28,12,28,41.859649065354844,-87.67121219288346,0
400,2018-12-13T00:00:00.000,Open - Dup,18-03350603,Pothole in Street,30 W 104TH ST,60628,1177896.1816288,1836011.93839018,34,5,49,41.70543579383583,-87.62462301149638,0
401,2018-12-13T00:00:00.000,Open - Dup,18-03350197,Pothole in Street,4400 W ALTGELD ST,60639,1146620.71129656,1916318.86992244,31,25,20,41.926463980293285,-87.73678244979202,0
402,2018-12-13T00:00:00.000,Open - Dup,18-03350575,Pothole in Street,32 W 104TH ST,60628,1177882.9816288,1836011.53839018,34,5,49,41.705434859901246,-87.6246967146586,0
403,2018-12-13T00:00:00.000,Open,18-03355283,Pothole in Street,7520 N OCTAVIA AVE,60631,1126729.58937847,1949389.58996946,41,16,9,42.017750082026986,-87.8091518937744,0
404,2018-12-13T00:00:00.000,Open,18-03354502,Pothole in Street,2601 W HOWARD ST,60645,1157737.57187888,1950317.02161435,50,24,2,42.019317575105106,-87.69495336664424,0
405,2018-12-13T00:00:00.000,Open,18-03350109,Pothole in Street,618 W 110TH ST,60628,1174073.70060702,1831933.72192698,34,22,49,41.694334406544726,-87.6384682661722,0
406,2018-12-13T00:00:00.000,Open,18-03351156,Pothole in Street,3700 W NORTH AVE,60647,1151441.11287228,1910379.96948625,26,25,23,41.91007656187643,-87.71898784853823,0
407,2018-12-13T00:00:00.000,Open,18-03349227,Pothole in Street,4952 N MONT CLARE AVE,60656,1127974.00691009,1932479.8169853,41,16,10,41.97163990076417,-87.8049595296492,0
408,2018-12-13T00:00:00.000,Open,18-03350449,Pothole in Street,58 W 104TH ST,60628,1177710.96788659,1836007.35280951,34,5,49,41.70542319342193,-87.62565393241418,0
409,2018-12-13T00:00:00.000,Open,18-03347638,Pothole in Street,2718 N LONG AVE,60639,1139909.31989171,1917631.64969795,30,25,19,41.930128427532125,-87.7614374819281,0
410,2018-12-13T00:00:00.000,Open - Dup,18-03349923,Pothole in Street,7115 N OLCOTT AVE,60631,1125487.62072747,1946658.37667909,41,16,9,42.01019771589758,-87.81348958633421,0
411,2018-12-13T00:00:00.000,Open,18-03345747,Pothole in Street,7000 S DAMEN AVE,60636,1164233.52811171,1858238.63622161,17,7,67,41.76657593332905,-87.67372558256234,0
412,2018-12-13T00:00:00.000,Open,18-03355334,Pothole in Street,10536 S GREEN BAY AVE,60617,1200521.31567957,1835533.83898905,10,4,52,41.703475012362375,-87.54148499018572,0
413,2018-12-13T00:00:00.000,Open,18-03351255,Pothole in Street,1328 W 122ND ST,60643,1169562.39826875,1823856.84098966,34,5,53,41.67227002141631,-87.65506319707815,0
414,2018-12-13T00:00:00.000,Open,18-03352410,Pothole in Street,1938 W CORNELIA AVE,60657,1162800.75161541,1923250.75100715,47,19,5,41.94515479714219,-87.67763259150202,0
415,2018-12-13T00:00:00.000,Open - Dup,18-03351411,Pothole in Street,4000 W NORTH AVE,60639,1149473.96650178,1910337.21718972,26,25,23,41.90999558160536,-87.72639469321471,0
416,2018-12-13T00:00:00.000,Completed,18-03351101,Pothole in Street,5917 N CENTRAL AVE,60646,1138359.95382641,1939168.74808686,39,16,11,41.98916661302085,-87.76624002170944,2
417,2018-12-13T00:00:00.000,Completed,18-03349654,Pothole in Street,5611 N WESTERN AVE,60659,1159310.85999497,1937188.03002487,40,20,4,41.983541994869526,-87.68931219573751,4
418,2018-12-13T00:00:00.000,Open - Dup,18-03350452,Pothole in Street,4732 N AUSTIN AVE,60630,1135483.63202837,1930970.97000451,38,16,15,41.966842122548464,-87.77738490698,0
419,2018-12-13T00:00:00.000,Open - Dup,18-03355575,Pothole in Street,6723 S WENTWORTH AVE,60621,1176120.76410795,1860395.79072971,6,7,69,41.77199585120445,-87.62978994392712,0
420,2018-12-13T00:00:00.000,Open,18-03347299,Pothole in Street,4120 N DRAKE AVE,60618,1151987.22412069,1927156.93422959,35,17,16,41.95627814507649,-87.71680835809728,0
421,2018-12-13T00:00:00.000,Completed - Dup,18-03353359,Pothole in Street,300 N DESPLAINES ST,60661,1171876.56870781,1902094.74518355,42,12,28,41.886834052075095,-87.64442362063004,0
422,2018-12-13T00:00:00.000,Open,18-03350409,Pothole in Street,100 W 104TH ST,60628,1177439.66788659,1836000.65280951,34,5,49,41.70541947926773,-87.62596664748257,0
423,2018-12-13T00:00:00.000,Completed,18-03352669,Pothole in Street,2405 W SUNNYSIDE AVE,60625,1159503.73809922,1929816.27003421,47,19,4,41.96302821128456,-87.68898000332467,2
424,2018-12-13T00:00:00.000,Completed - Dup,18-03352748,Pothole in Street,4850 N ROCKWELL ST,60625,1158154.22968895,1932264.14479324,40,20,4,41.970047521824156,-87.69399416882827,0
425,2018-12-13T00:00:00.000,Open - Dup,18-03346999,Pothole in Street,1134 W GARFIELD BLVD,60609,1169588.33990354,1868326.53200447,20,9,61,41.79429991173285,-87.65372508080665,0
426,2018-12-13T00:00:00.000,Open - Dup,18-03352066,Pothole in Street,1204 W 122ND ST,60643,1170495.26390294,1823882.76271652,34,5,53,41.67232019131287,-87.651700844672,0
427,2018-12-13T00:00:00.000,Open,18-03349348,Pothole in Street,8100 S KILDARE AVE,60652,1149470.88291148,1850537.0546663,18,8,70,41.74561087316852,-87.72793119109272,0
428,2018-12-13T00:00:00.000,Completed,18-03352876,Pothole in Street,8900 S CARPENTER ST,60620,1170876.53990696,1845703.49211644,21,22,73,41.73200176442294,-87.64974008563641,3
429,2018-12-13T00:00:00.000,Open,18-03348493,Pothole in Street,5858 W FULLERTON AVE,60639,1136856.40576842,1915349.7671892,30,25,19,41.923976785020365,-87.77322788894183,0
430,2018-12-13T00:00:00.000,Completed,18-03352886,Pothole in Street,1132 W 91ST ST,60620,1170253.26917437,1844450.77837303,21,22,73,41.72876787361288,-87.65197861212252,20
431,2018-12-13T00:00:00.000,Open,18-03350006,Pothole in Street,7900 S SOUTH SHORE DR,60617,1198500.49436963,1853188.5980964,7,4,46,41.75185560246702,-87.54825033733893,0
432,2018-12-13T00:00:00.000,Open,18-03351343,Pothole in Street,3900 W NORTH AVE,60647,1150110.00599979,1910351.38008228,26,25,23,41.910023748014396,-87.72390638624772,0
433,2018-12-13T00:00:00.000,Open,18-03354719,Pothole in Street,5232 N ST LOUIS AVE,60625,1152112.12469652,1934542.62947034,39,17,13,41.976663169399245,-87.71614590494319,0
434,2018-12-13T00:00:00.000,Open - Dup,18-03351175,Pothole in Street,1400 W 122ND ST,60643,1169209.20137492,1823847.38349483,34,5,53,41.6722512580941,-87.656401124544,0
435,2018-12-13T00:00:00.000,Open - Dup,18-03352729,Pothole in Street,500 S PULASKI RD,60624,1149807.14339468,1897392.5174172,28,11,26,41.87434204519479,-87.72558999803697,0
436,2018-12-13T00:00:00.000,Open - Dup,18-03351981,Pothole in Street,1300 W 122ND ST,60643,1169873.03251755,1823865.35433093,34,5,53,41.672286185030195,-87.65396754153123,0
437,2018-12-13T00:00:00.000,Open,18-03354514,Pothole in Street,4800 W AUGUSTA BLVD,60651,1144177.779918,1906218.88591175,37,15,25,41.89878961375351,-87.74602339004822,0
438,2018-12-13T00:00:00.000,Open,18-03354371,Pothole in Street,1909 W GRAND AVE,60622,1163584.36808493,1903507.97813392,1,12,24,41.8907480761696,-87.67488756215282,0
439,2018-12-13T00:00:00.000,Open,18-03354386,Pothole in Street,7900 S CENTRAL PARK AVE,60652,1153826.96442304,1851955.84347554,18,8,70,41.749552179401995,-87.71203736060635,0
440,2018-12-13T00:00:00.000,Completed,18-03352764,Pothole in Street,205 E MONROE DR,60603,1177798.61391507,1899973.44361656,42,1,32,41.880743141405794,-87.62244934027387,4
441,2018-12-13T00:00:00.000,Completed,18-03351124,Pothole in Street,9058 S ABERDEEN ST,60620,1170576.23298452,1844734.15489858,21,22,73,41.728762871734894,-87.6508509277934,2
442,2018-12-13T00:00:00.000,Open - Dup,18-03350646,Pothole in Street,5849 N CENTRAL AVE,60646,1137902.36960978,1938463.12019001,39,16,11,41.98728897067043,-87.76804841367992,0
443,2018-12-13T00:00:00.000,Open - Dup,18-03349815,Pothole in Street,1300 S LAKE SHORE DR,60605,1178777.33938898,1894495.3751093,4,1,33,41.865732312266495,-87.61966863731983,0
444,2018-12-13T00:00:00.000,Open,18-03352858,Pothole in Street,2948 N SAYRE AVE,60634,1129074.06450026,1918908.65011361,29,25,18,41.93410917236244,-87.80123531762534,0
445,2018-12-13T00:00:00.000,Open - Dup,18-03350577,Pothole in Street,3400 W NORTH AVE,60647,1153406.81158771,1910426.28957124,26,14,23,41.91016284680269,-87.71195386769125,0
446,2018-12-13T00:00:00.000,Open - Dup,18-03351423,Pothole in Street,2312 W 51ST ST,60609,1161795.03012116,1870797.4683676,15,9,63,41.80124124598674,-87.68239254720653,0
447,2018-12-13T00:00:00.000,Open,18-03354404,Pothole in Street,7632 S FORD CITY DR ER,60652,1151319.93903258,1853547.75056763,18,8,70,41.75414217356362,-87.72103392152559,0
448,2018-12-13T00:00:00.000,Open,18-03349537,Pothole in Street,2900 W 62ND ST,60629,1158111.31710384,1863395.97079318,16,8,66,41.781011521507125,-87.69594382001863,0
449,2018-12-13T00:00:00.000,Open,18-03349214,Pothole in Street,3131 W AUGUSTA BLVD,60622,1155276.73391524,1906488.18428685,26,12,23,41.8990964841824,-87.70553893175217,0
450,2018-12-13T00:00:00.000,Open,18-03348597,Pothole in Street,2800 N SHERIDAN RD,60657,1173089.01921984,1918906.91652233,44,19,6,41.932987177104614,-87.63946725226594,0
451,2018-12-13T00:00:00.000,Open,18-03352011,Pothole in Street,1254 W 122ND ST,60643,1170096.32630265,1823871.74730864,34,5,53,41.672290736140916,-87.65367697296864,0
452,2018-12-13T00:00:00.000,Open - Dup,18-03350518,Pothole in Street,46 W 104TH ST,60628,1177790.3816288,1836009.33839018,34,5,49,41.705428478548214,-87.62521255671868,0
453,2018-12-13T00:00:00.000,Open,18-03351265,Pothole in Street,6336 W FOSTER AVE,60630,1132898.79142801,1934193.03580906,45,16,11,41.97576459505513,-87.78672560198292,0
454,2018-12-13T00:00:00.000,Open - Dup,18-03351143,Pothole in Street,3600 W NORTH AVE,60647,1152094.95508797,1910395.07389402,26,25,23,41.91010325129441,-87.71675618326017,0
455,2018-12-13T00:00:00.000,Open - Dup,18-03351701,Pothole in Street,1306 W 122ND ST,60643,1169806.43251755,1823863.55433093,34,5,53,41.67228217564857,-87.6542205959794,0
456,2018-12-13T00:00:00.000,Open - Dup,18-03352034,Pothole in Street,1220 W 122ND ST,60643,1170323.52630265,1823878.04730864,34,5,53,41.67231039297665,-87.65237578643674,0
457,2018-12-13T00:00:00.000,Open - Dup,18-03355460,Pothole in Street,300 E WACKER DR,60601,1178307.38047035,1902572.1000208,42,1,32,41.88807333160907,-87.6205944613368,0
458,2018-12-13T00:00:00.000,Completed,18-03349687,Pothole in Street,360 W RANDOLPH ST,60606,1173845.71869511,1901256.85469231,42,1,32,41.884571351118886,-87.63711138408262,2
459,2018-12-13T00:00:00.000,Open,18-03354930,Pothole in Street,4616 S LECLAIRE AVE,60638,1143135.45557414,1873548.75279637,22,8,56,41.80880349221437,-87.75067447729616,0
460,2018-12-13T00:00:00.000,Open,18-03353124,Pothole in Street,2015 N RACINE AVE,60614,1167987.1220733,1913544.83009736,43,18,7,41.91852164886568,-87.65809000011842,0
461,2018-12-13T00:00:00.000,Open - Dup,18-03351653,Pothole in Street,1314 W 122ND ST,60643,1169717.73251755,1823861.05433093,34,5,53,41.67227766564687,-87.6545580177369,0
462,2018-12-13T00:00:00.000,Open,18-03350764,Pothole in Street,10 W 110TH ST,60628,1178146.44519049,1832029.7679951,34,5,49,41.694509693406346,-87.62357620652708,0
463,2018-12-13T00:00:00.000,Open,18-03349863,Pothole in Street,10724 S EGGLESTON AVE,60628,1175188.53690292,1833791.44491419,34,22,49,41.69896927775523,-87.63428886712119,0
464,2018-12-13T00:00:00.000,Completed,18-03350363,Pothole in Street,2726 W MONTROSE AVE,60618,1157283.1300334,1929114.62147918,33,17,14,41.96136734640747,-87.6971897757463,18
465,2018-12-13T00:00:00.000,Open,18-03346665,Pothole in Street,10647 S AVENUE F,60617,1203500.14591509,1834966.90869705,10,4,52,41.70132361904841,-87.53030451320228,0
466,2018-12-13T00:00:00.000,Completed,18-03352638,Pothole in Street,4531 N CAMPBELL AVE,60625,1158889.65860367,1930001.7335287,47,19,4,41.964067529377495,-87.69106637919812,10
467,2018-12-13T00:00:00.000,Open,18-03348942,Pothole in Street,398 E LOWER WACKER DR,60601,1179158.19671798,1902504.42402091,42,1,32,41.88788503584082,-87.61766861893602,0
468,2018-12-13T00:00:00.000,Open - Dup,18-03350293,Pothole in Street,3701 W 62ND PL,60629,1152777.03941153,1862913.09450144,23,8,65,41.77957290883157,-87.7155443143627,0
469,2018-12-13T00:00:00.000,Open - Dup,18-03351487,Pothole in Street,4001 W NORTH AVE,60639,1149462.86650178,1910336.91718972,26,25,23,41.90977608675987,-87.72638919420739,0
470,2018-12-13T00:00:00.000,Open - Dup,18-03350987,Pothole in Street,5817 N CENTRAL AVE,60646,1137876.1185099,1938180.74097024,39,16,11,41.986444153795375,-87.76811956795373,3
471,2018-12-13T00:00:00.000,Open,18-03352919,Pothole in Street,337 W ARMITAGE AVE,60614,1173561.23998012,1913601.04031536,43,18,7,41.918229032243815,-87.6378480432391,0
472,2018-12-13T00:00:00.000,Completed,18-03352838,Pothole in Street,4854 N BELL AVE,60625,1160480.32042282,1932200.30722968,47,20,4,41.97027994185692,-87.68545931670924,1
473,2018-12-13T00:00:00.000,Open,18-03346638,Pothole in Street,519 W ARLINGTON PL,60614,1172420.47312762,1916731.14151165,43,19,7,41.92667594193231,-87.6419989198988,0
474,2018-12-13T00:00:00.000,Open - Dup,18-03351134,Pothole in Street,5199 N CENTRAL PARK AVE,60625,1151454.98000741,1934312.35001181,39,17,13,41.975541358400704,-87.71828027637316,0
475,2018-12-13T00:00:00.000,Open,18-03354417,Pothole in Street,4799 N LARAMIE AVE,60630,1140793.1200065,1931419.06000462,45,16,15,41.96785196497942,-87.75755212061048,0
476,2018-12-13T00:00:00.000,Open - Dup,18-03352101,Pothole in Street,1208 W 122ND ST,60643,1170452.26390294,1823881.56271652,34,5,53,41.67231786550702,-87.65186950723258,0
477,2018-12-13T00:00:00.000,Open,18-03349931,Pothole in Street,10824 S EGGLESTON AVE,60628,1175209.51670372,1833128.15081488,34,22,49,41.69717103389238,-87.63423338615505,0
478,2018-12-13T00:00:00.000,Completed,18-03349474,Pothole in Street,4854 S LAFLIN ST,60609,1167154.80022778,1872545.44943189,20,9,61,41.805196995003556,-87.66259410895951,10
479,2018-12-13T00:00:00.000,Open - Dup,18-03349910,Pothole in Street,1623 N KIMBALL AVE,60647,1153414.51158771,1910580.58957124,26,14,23,41.910760101460234,-87.71155350050321,0
480,2018-12-13T00:00:00.000,Completed,18-03350362,Pothole in Street,2649 W MONTROSE AVE,60618,1157742.33069692,1929122.08051075,33,17,16,41.961158158806505,-87.6955571128361,2
481,2018-12-13T00:00:00.000,Open - Dup,18-03351524,Pothole in Street,4201 W NORTH AVE,60639,1148088.5257679,1910302.1549294,26,25,23,41.90970684669422,-87.73146919015973,0
482,2018-12-13T00:00:00.000,Open - Dup,18-03351198,Pothole in Street,3601 W NORTH AVE,60647,1152085.35508797,1910394.87389402,26,25,23,41.90988374801486,-87.71675134304142,0
483,2018-12-13T00:00:00.000,Open,18-03349317,Pothole in Street,2440 W 63RD ST,60629,1161080.86527829,1862811.81449598,16,8,66,41.7793442633867,-87.68529586267398,0
484,2018-12-13T00:00:00.000,Open,18-03349803,Pothole in Street,10733 S MORGAN ST,60643,1171559.97071656,1833522.53997932,34,22,75,41.6985667363424,-87.64729919081475,0
485,2018-12-13T00:00:00.000,Completed - Dup,18-03352653,Pothole in Street,4541 N CAMPBELL AVE,60625,1158887.75860367,1930064.8335287,47,19,4,41.96435288108407,-87.69107472977093,0
486,2018-12-13T00:00:00.000,Open,18-03347659,Pothole in Street,4000 W GRAND AVE,60651,1149462.62783376,1908977.61522451,26,25,23,41.90625887086,-87.72635347636164,0
487,2018-12-13T00:00:00.000,Open - Dup,18-03350605,Pothole in Street,3401 W NORTH AVE,60647,1153397.11158771,1910426.08957124,26,14,23,41.90994333506405,-87.71194978316811,0
488,2018-12-13T00:00:00.000,Open - Dup,18-03348599,Pothole in Street,4000 W NORTH AVE,60639,1149473.96650178,1910337.21718972,26,25,23,41.90999558160536,-87.72639469321471,0
489,2018-12-13T00:00:00.000,Open,18-03354536,Pothole in Street,3242 W BELDEN AVE,60647,1154129.87228434,1915101.33540952,32,14,22,41.92297718361298,-87.70916757049923,0
490,2018-12-13T00:00:00.000,Open - Dup,18-03352988,Pothole in Street,5439 W CHICAGO AVE,60651,1139764.86977224,1904801.11477066,37,15,25,41.89476878069051,-87.76205775896409,0
491,2018-12-13T00:00:00.000,Completed,18-03352237,Pothole in Street,3419 W 61ST PL,60629,1154658.26630479,1863633.47752353,23,8,66,41.781508394507554,-87.70886365766948,12
492,2018-12-13T00:00:00.000,Completed,18-03354167,Pothole in Street,7900 S HALSTED ST,60620,1172337.89732105,1852478.52150348,17,6,71,41.750549559438944,-87.64418836784098,1
493,2018-12-13T00:00:00.000,Open,18-03349224,Pothole in Street,7321 N OKETO AVE,60631,1126063.51201538,1948046.95107013,41,16,9,42.014057262329835,-87.81133961669948,0
494,2018-12-13T00:00:00.000,Open,18-03350997,Pothole in Street,3500 W NORTH AVE,60647,1152732.14127696,1910409.38979075,26,14,23,41.91013020174722,-87.7143908570216,0
495,2018-12-13T00:00:00.000,Open - Dup,18-03351228,Pothole in Street,3800 W NORTH AVE,60647,1150772.88002842,1910365.21996658,26,25,23,41.91004941940976,-87.72145808388564,0
496,2018-12-13T00:00:00.000,Open - Dup,18-03355405,Pothole in Street,799 E 50TH PL,60615,1182440.1134783,1871701.61007398,4,2,38,41.80305395585207,-87.60650186269577,0
497,2018-12-13T00:00:00.000,Open,18-03352755,Pothole in Street,1921 S HARDING AVE,60623,1150363.58937297,1890221.86081537,24,10,29,41.85442031388458,-87.7234324079395,0
498,2018-12-13T00:00:00.000,Completed,18-03353073,Pothole in Street,7200 W BARRY AVE,60707,1127540.83797411,1919840.93818058,29,25,17,41.93645381776064,-87.80677376485949,70
499,2018-12-13T00:00:00.000,Open - Dup,18-03351233,Pothole in Street,1353 W 104TH ST,60643,1168986.4551001,1835802.50353342,34,22,72,41.704843638750674,-87.65702982971601,0
500,2018-12-13T00:00:00.000,Open - Dup,18-03354416,Pothole in Street,4000 W LAWRENCE AVE,60630,1148861.93592875,1931598.86432521,39,17,14,41.96835128527914,-87.72809167198088,0
501,2018-12-13T00:00:00.000,Open,18-03351500,Pothole in Street,4200 W NORTH AVE,60639,1148088.5257679,1910302.1549294,26,25,23,41.909928420721066,-87.73131793908917,0
502,2018-12-13T00:00:00.000,Open,18-03350130,Pothole in Street,6857 S HALSTED ST,60621,1172150.97481732,1859388.43961062,6,7,68,41.7689868427152,-87.6443642308397,0
503,2018-12-13T00:00:00.000,Open,18-03347185,Pothole in Street,400 S CENTRAL AVE,60644,1139126.01899696,1897454.09002589,29,15,25,41.87468009194542,-87.76480397994328,0
504,2018-12-13T00:00:00.000,Open,18-03350009,Pothole in Street,452 W 110TH ST,60628,1175138.72013234,1831959.80812965,34,22,49,41.69437423369453,-87.63504675054556,0
505,2018-12-13T00:00:00.000,Completed,18-03352129,Pothole in Street,2246 N GENEVA TER,60614,1171893.82679403,1915287.24989851,43,18,7,41.92330498643634,-87.6439801073231,1
506,2018-12-13T00:00:00.000,Open - Dup,18-03351581,Pothole in Street,4301 W NORTH AVE,60639,1147420.31451211,1910286.29141656,26,25,23,41.909676222517476,-87.7339238611247,0
507,2018-12-13T00:00:00.000,Open - Dup,18-03352466,Pothole in Street,341 N COLUMBUS DR,60601,1178307.38047035,1902572.1000208,42,1,32,41.8878846470662,-87.6205117403242,0
508,2018-12-13T00:00:00.000,Open,18-03353980,Pothole in Street,407 E 112TH ST,60628,1180978.35523407,1830784.62976733,9,5,49,41.6908090704318,-87.612982857592,0
509,2018-12-13T00:00:00.000,Open,18-03351215,Pothole in Street,1359 W 104TH ST,60643,1168963.4551001,1835802.00353342,34,22,72,41.70483976955376,-87.65731445520075,0
510,2018-12-13T00:00:00.000,Open,18-03349448,Pothole in Street,2400 W 31ST ST,60608,1160858.28581551,1884615.05821024,25,10,31,41.839139331694184,-87.68539358845226,0
511,2018-12-13T00:00:00.000,Completed,18-03351550,Pothole in Street,5240 S OAK PARK AVE,60638,1131937.45789287,1869076.63362095,23,8,56,41.79649931418967,-87.79184219909978,21
512,2018-12-13T00:00:00.000,Open - Dup,18-03350654,Pothole in Street,24 W 104TH ST,60628,1177935.8816288,1836012.83839018,34,5,49,41.70543859535582,-87.62440190200091,0
513,2018-12-13T00:00:00.000,Completed,18-03352744,Pothole in Street,4846 N ROCKWELL ST,60625,1158155.12968895,1932238.04479324,40,20,4,41.96993814957115,-87.69399039544481,1
514,2018-12-13T00:00:00.000,Open - Dup,18-03350287,Pothole in Street,650 W 110TH ST,60628,1173845.90060702,1831928.42192698,34,22,49,41.694320631002746,-87.6396180311294,0
515,2018-12-13T00:00:00.000,Open,18-03349163,Pothole in Street,4656 W LELAND AVE,60630,1144401.48002425,1930838.05158752,39,17,16,41.96634190354003,-87.74509761113767,0
516,2018-12-13T00:00:00.000,Open,18-03350311,Pothole in Street,714 W 110TH ST,60628,1173454.00251511,1831918.92058418,34,22,49,41.694307270873864,-87.6407122952174,0
517,2018-12-13T00:00:00.000,Open,18-03355576,Pothole in Street,6253 S MICHIGAN AVE,60637,1178260.13996621,1863558.82097698,20,3,40,41.78040369454447,-87.62183748916999,0
518,2018-12-13T00:00:00.000,Open - Dup,18-03350797,Pothole in Street,8 W 110TH ST,60628,1178159.74519049,1832030.0679951,34,5,49,41.6945105952303,-87.62350189912702,0
519,2018-12-13T00:00:00.000,Open,18-03355411,Pothole in Street,800 E 50TH ST,60615,1182432.0224895,1872035.73636799,4,2,39,41.804198142550575,-87.6063525496676,0
520,2018-12-13T00:00:00.000,Open - Dup,18-03350013,Pothole in Street,3110 W DIVISION ST,60622,1155358.94448745,1907816.34871944,26,14,24,41.902962375889395,-87.70481177048107,0
521,2018-12-13T00:00:00.000,Open,18-03351358,Pothole in Street,2320 W ROSEMONT AVE,60659,1159624.78778683,1941770.81633002,50,24,2,41.99604720117166,-87.68829406599615,0
522,2018-12-13T00:00:00.000,Open,18-03355615,Pothole in Street,2456 N WESTERN AVE,60647,1159949.61322953,1916285.74009286,1,14,22,41.926632749292224,-87.68785369959238,0
523,2018-12-13T00:00:00.000,Open - Dup,18-03351549,Pothole in Street,4300 W NORTH AVE,60639,1147420.31451211,1910286.29141656,26,25,23,41.90989766464456,-87.73376822625004,0
524,2018-12-13T00:00:00.000,Open - Dup,18-03350075,Pothole in Street,544 W 110TH ST,60628,1174533.27992176,1831944.85519841,34,22,49,41.694351357528646,-87.63695238487047,0
525,2018-12-13T00:00:00.000,Completed - Dup,18-03352663,Pothole in Street,4549 N CAMPBELL AVE,60625,1158886.25860367,1930115.2335287,47,19,4,41.964581278306,-87.69108104030569,0
526,2018-12-13T00:00:00.000,Completed - Dup,18-03351985,Pothole in Street,5220 S RUTHERFORD AVE,60638,1132266.28729257,1869218.25049336,23,8,56,41.79707801113695,-87.79063907733178,0
527,2018-12-13T00:00:00.000,Completed,18-03352680,Pothole in Street,5009 N FRANCISCO AVE,60625,1156131.50188239,1933138.63138277,40,20,4,41.9724772846176,-87.70111348597975,9
528,2018-12-13T00:00:00.000,Open - Dup,18-03349980,Pothole in Street,10857 S EGGLESTON AVE,60628,1175216.31801214,1832906.96520961,34,22,49,41.69630181215359,-87.63391434198239,0
529,2018-12-13T00:00:00.000,Open,18-03354723,Pothole in Street,2300 W HUBBARD ST,60612,1160993.49873237,1903028.93451284,27,12,24,41.889709255056815,-87.68428068665004,0
530,2018-12-13T00:00:00.000,Completed,18-03349106,Pothole in Street,2809 W IRVING PARK RD,60618,1156897.83811838,1926456.53942685,33,17,16,41.9538619360365,-87.69863925418242,14
531,2018-12-13T00:00:00.000,Completed,18-03350333,Pothole in Street,1451 W WINONA ST,60640,1165553.36431809,1934300.0166039,47,20,3,41.97521365259304,-87.66670048274115,6
532,2018-12-13T00:00:00.000,Completed - Dup,18-03352929,Pothole in Street,5220 S RUTHERFORD AVE,60638,1132266.28729257,1869218.25049336,23,8,56,41.79707801113695,-87.79063907733178,0
533,2018-12-13T00:00:00.000,Open - Dup,18-03351609,Pothole in Street,147 W SCHILLER ST,60610,1174822.00829362,1909732.86469386,2,18,8,41.90757502240888,-87.63338288673081,0
534,2018-12-13T00:00:00.000,Open - Dup,18-03354559,Pothole in Street,5325 N LINDER AVE,60630,1138525.06121529,1935083.70876816,45,16,11,41.97821555904619,-87.76584056769556,0
535,2018-12-13T00:00:00.000,Open - Dup,18-03351396,Pothole in Street,3901 W NORTH AVE,60647,1150083.00599979,1910350.78008228,26,25,23,41.90980178212476,-87.72414177302362,0
536,2018-12-13T00:00:00.000,Completed,18-03353160,Pothole in Street,900 W 80TH ST,60620,1171696.33480768,1851795.55588498,17,6,71,41.748891314493484,-87.6464781364197,6
537,2018-12-13T00:00:00.000,Open - Dup,18-03350226,Pothole in Street,644 W 110TH ST,60628,1173875.50060702,1831929.12192698,34,22,49,41.69432369935216,-87.63936632436115,0
538,2018-12-13T00:00:00.000,Open,18-03349441,Pothole in Street,2211 N OAK PARK AVE,60707,1130722.52230015,1913936.94227736,29,25,18,41.920336171536384,-87.7949943024895,0
539,2018-12-13T00:00:00.000,Open - Dup,18-03349894,Pothole in Street,10757 S EGGLESTON AVE,60628,1175195.61670372,1833570.35081488,34,22,49,41.69807028858107,-87.63396810996137,0
540,2018-12-13T00:00:00.000,Open,18-03350057,Pothole in Street,540 W 110TH ST,60628,1174552.77992176,1831945.35519841,34,22,49,41.694353930275796,-87.6367871565001,0
541,2018-12-13T00:00:00.000,Open,18-03350406,Pothole in Street,4409 N CALIFORNIA AVE,60625,1156914.13316571,1929169.18581,33,17,14,41.96156145557218,-87.69835049628945,0
542,2018-12-13T00:00:00.000,Open - Dup,18-03351266,Pothole in Street,3801 W NORTH AVE,60647,1150741.58002842,1910364.31996658,26,25,23,41.909826163903105,-87.72172132037602,0
543,2018-12-13T00:00:00.000,Open,18-03351269,Pothole in Street,107 N KILPATRICK AVE,60644,1145040.20378076,1900121.53878497,28,11,25,41.88212354639953,-87.74273591474777,0
544,2018-12-13T00:00:00.000,Open,18-03352052,Pothole in Street,6317 N NEWARK AVE,60631,1129633.44758382,1941448.36830037,41,16,10,41.99545675158231,-87.79831127189071,0
545,2018-12-13T00:00:00.000,Open,18-03352783,Pothole in Street,4505 N LEAVITT ST,60625,1160875.62032719,1929904.42837677,47,19,4,41.963382891920055,-87.68374468563373,0
546,2018-12-13T00:00:00.000,Open - Dup,18-03350554,Pothole in Street,34 W 104TH ST,60628,1177869.7816288,1836011.23839018,34,5,49,41.70543392591937,-87.62477041781933,0
547,2018-12-13T00:00:00.000,Open - Dup,18-03350428,Pothole in Street,102 W 104TH ST,60628,1177426.56788659,1836000.35280951,34,5,49,41.70541840025681,-87.62604318056606,0
548,2018-12-13T00:00:00.000,Open - Dup,18-03350135,Pothole in Street,624 W 110TH ST,60628,1174009.60060702,1831932.22192698,34,22,49,41.69433112599386,-87.63874080354806,0
549,2018-12-13T00:00:00.000,Open,18-03349729,Pothole in Street,1700 N HUMBOLDT BLVD,60647,1156110.46082585,1911207.08752205,26,14,23,41.91222465178207,-87.70207671808849,0
550,2018-12-13T00:00:00.000,Open,18-03352678,Pothole in Street,400 W 60TH PL,60621,1174630.11117135,1864816.12466789,20,7,68,41.784543957308514,-87.6353971373035,0
551,2018-12-13T00:00:00.000,Open - Dup,18-03351177,Pothole in Street,3701 W NORTH AVE,60647,1151405.61287228,1910379.26948625,26,25,23,41.90985387830976,-87.71927878166252,0
552,2018-12-13T00:00:00.000,Open,18-03351303,Pothole in Street,5700 W FOSTER AVE,60630,1137100.96070622,1934229.19468207,45,16,11,41.97578973966248,-87.77123510818363,0
553,2018-12-13T00:00:00.000,Open,18-03350320,Pothole in Street,7900 S STONY ISLAND AVE,60617,1188221.70228264,1852925.66627643,8,4,45,41.75146060316686,-87.5859719929647,0
554,2018-12-13T00:00:00.000,Open,18-03350004,Pothole in Street,1200 S LAKE SHORE DR,60605,1178894.63899043,1895103.61710212,4,1,33,41.867484227164155,-87.61915038338188,0
555,2018-12-13T00:00:00.000,Open - Dup,18-03351257,Pothole in Street,6632 W FOSTER AVE,60656,1130921.24748673,1934161.09530246,41,16,10,41.975711595212644,-87.79399779697339,0
556,2018-12-13T00:00:00.000,Completed - Dup,18-03354000,Pothole in Street,2716 W MONTROSE AVE,60618,1157383.8300334,1929116.22147918,33,17,14,41.96136994200066,-87.6968181258596,0
557,2018-12-13T00:00:00.000,Open - Dup,18-03351095,Pothole in Street,3501 W NORTH AVE,60647,1152724.34127696,1910409.18979075,26,14,23,41.909910705082176,-87.71438551021203,0
558,2018-12-12T00:00:00.000,Open,18-03342501,Pothole in Street,2150 W 114TH PL,60643,1164503.33637318,1828360.46503215,19,22,75,41.685363843507275,-87.67519494935082,0
559,2018-12-12T00:00:00.000,Open - Dup,18-03343050,Pothole in Street,2437 W BIRCHWOOD AVE,60645,1158671.17003164,1949690.69003328,50,24,2,42.01757847554399,-87.69160416200116,0
560,2018-12-12T00:00:00.000,Open,18-03340153,Pothole in Street,8100 S JUSTINE ST,60620,1167413.40567744,1851014.7546276,21,6,71,41.74663982161097,-87.6622758721806,0
561,2018-12-12T00:00:00.000,Open,18-03341689,Pothole in Street,1600 N KEDZIE AVE,60647,1154745.89182996,1910458.44128548,26,14,23,41.9102509231792,-87.70702365016308,0
562,2018-12-12T00:00:00.000,Open,18-03341227,Pothole in Street,7558 W BERWYN AVE,60656,1124880.66736992,1934313.43418657,41,16,10,41.97621424028873,-87.81684628535768,0
563,2018-12-12T00:00:00.000,Open,18-03341265,Pothole in Street,6300 W HIGHLAND AVE,60646,1133217.54310045,1941776.31001451,39,16,10,41.996568251392134,-87.78539288074471,0
564,2018-12-12T00:00:00.000,Open,18-03344923,Pothole in Street,4840 N MERRIMAC AVE,60630,1133538.58998085,1931848.22769506,45,16,11,41.969671274156454,-87.78450736490181,0
565,2018-12-12T00:00:00.000,Completed,18-03339249,Pothole in Street,449 S MICHIGAN AVE,60605,1177354.03260788,1898337.24117246,42,1,32,41.8758371324149,-87.62411636586752,1
566,2018-12-12T00:00:00.000,Open,18-03337960,Pothole in Street,732 W 28TH ST,60616,1171752.61599663,1886320.52523336,11,9,60,41.84363025649031,-87.64525950370731,0
567,2018-12-12T00:00:00.000,Open - Dup,18-03345300,Pothole in Street,1800 S WESTERN AVE,60608,1160643.96316663,1891326.66991828,28,10,31,41.85747437096779,-87.68596860468548,0
568,2018-12-12T00:00:00.000,Open,18-03341929,Pothole in Street,6800 S LAFLIN ST,60636,1167506.72398019,1859642.71117372,16,7,67,41.77031334414656,-87.66168630624402,0
569,2018-12-12T00:00:00.000,Open,18-03344450,Pothole in Street,1801 W BARRY AVE,60657,1163743.38719267,1920617.60043245,32,19,5,41.937698058544086,-87.67360341211277,0
570,2018-12-12T00:00:00.000,Open,18-03344029,Pothole in Street,4101 W ARTHINGTON ST,60624,1149176.97787109,1895797.92081659,24,11,26,41.86988491502747,-87.7278167018188,0
571,2018-12-12T00:00:00.000,Open,18-03341989,Pothole in Street,4100 W BELLE PLAINE AVE,60641,1148556.99610661,1926938.03807959,39,17,16,41.95556745403974,-87.72935304062321,0
572,2018-12-12T00:00:00.000,Open,18-03342585,Pothole in Street,6959 S PRAIRIE AVE,60637,1179245.26118876,1858864.12067676,6,3,69,41.76751624862818,-87.61837785336576,0
573,2018-12-12T00:00:00.000,Completed,18-03343247,Pothole in Street,4300 S STATE ST,60609,1176990.43886754,1876512.20010688,3,2,38,41.81639583392806,-87.62641289428794,6
574,2018-12-12T00:00:00.000,Open - Dup,18-03344215,Pothole in Street,2018 N SAWYER AVE,60647,1154185.6730785,1913316.08009173,26,14,22,41.917973013707666,-87.70909012204712,0
575,2018-12-12T00:00:00.000,Open,18-03342526,Pothole in Street,2641 W 103RD PL,60655,1160474.60457445,1835905.16006631,19,22,72,41.70530224402289,-87.68820601606899,0
576,2018-12-12T00:00:00.000,Open,18-03340175,Pothole in Street,5225 S KOSTNER AVE,60632,1147914.58591373,1869606.61732214,23,8,57,41.797839095266745,-87.73294910850097,0
577,2018-12-12T00:00:00.000,Open,18-03339486,Pothole in Street,2072 N WESTERN AVE,60647,1160025.65771007,1913884.96991272,1,14,22,41.91969265900209,-87.68762594025866,0
578,2018-12-12T00:00:00.000,Completed,18-03342953,Pothole in Street,3050 W ROSEMONT AVE,60659,1154786.58083031,1941638.73340111,50,24,2,41.99577836665517,-87.70646726365061,4
579,2018-12-12T00:00:00.000,Completed,18-03342926,Pothole in Street,2800 W PETERSON AVE,60659,1156586.6128955,1939745.08502538,50,24,2,41.990552081681564,-87.69946439622785,7
580,2018-12-12T00:00:00.000,Open,18-03342173,Pothole in Street,7100 S JEFFERY BLVD,60649,1190774.59169588,1858255.10738698,5,3,43,41.7660277795161,-87.57644312277864,0
581,2018-12-12T00:00:00.000,Open,18-03339291,Pothole in Street,2666 W FULLERTON AVE,60647,1158301.07987183,1915851.8203788,1,14,22,41.92494196691,-87.69491046030078,0
